~VERSION INFORMATION
VERS.           2.0   :CWLS Log ASCII Standard - VERSION 2.0
WRAP.           NO    :One Line per depth step
PROD.  Schlumberger   :LAS Producer
PROG.  DLIS to ASCII 19C2-270                          :LAS Program name and version
CREA.        2014/09/03 09:43                          :LAS Creation date {YYYY/MM/DD hh:mm}
DLIS_CREA.  2014-Sep-03 09:38                          :DLIS Creation date and time {YYYY-MMM-DD hh:mm}
SOURCE.     1-MPE-3-AL_hals-dslt-tdd-hgns-gr_resistividade_repetida.DLIS  :DLIS File Name
FILE-ID.     HALS_SONIC_TLD_MCFL_006PUP                :File Identification Number
#--------------------------------------------------
~WELL INFORMATION
#MNEM.UNIT      DATA             DESCRIPTION
#---- ------ --------------   -----------------------------
STRT .M      1554.9372       :START DEPTH     
STOP .M      1475.9940       :STOP DEPTH     
STEP .M        -0.1524       :STEP     
NULL .          -999.25      :NULL VALUE
COMP .        MARITIMA                                 :COMPANY
WELL .        1-MPE-3-AL                               :WELL
FLD  .        BLOCO BT-SEAL 3                          :FIELD
LOC  .        SAD69, MC=33*                            :LOCATION
CNTY .        ALAGOAS                                  :COUNTY
STAT .        08115020605                              :STATE
CTRY .        BRASIL                                   :COUNTRY
API  .                                                 :API NUMBER
UWI  .                                                 :UNIQUE WELL ID
DATE .        04/09/2003                               :LOG DATE
SRVC .        Schlumberger                             :SERVICE COMPANY
LATI .DEG     -09:28:10.251                            :LATITUDE
LONG .DEG     -35:38:05.710                            :LONGITUDE
GDAT .                                                 :GeoDetic Datum
#-----------------------------------------------------------------------------
~PARAMETER INFORMATION
#MNEM.UNIT    VALUE                      DESCRIPTION
#---- -----   --------------------       ------------------------
RUN  .          2                        :RUN NUMBER
PDAT .        NM                         :Permanent Datum
EPD  .M           0.000000               :Elevation of Permanent Datum above Mean Sea Level
LMF  .          MR                       :Logging Measured From (Name of Logging Elevation Reference)
APD  .M          78.000000               :Elevation of Depth Reference (LMF) above Permanent Datum
#-----------------------------------------------------------------------------
~CURVE INFORMATION
#MNEM.UNIT   API CODE                                  DESCRIPTION
#---- -----  --------                                  -----------------------
DEPT .M                                                :DEPTH (BOREHOLE) {F10.4}
DT   .US/F                                             :Delta-T {F13.4}
GR   .GAPI                                             :Gamma-Ray {F13.4}
HCAL .IN                                               :HRCC Cal. Caliper {F13.4}
HDRA .G/C3                                             :HRDD Density Correction {F13.4}
HLLD .OHMM                                             :HALS Laterolog Deep Resistivity {F13.4}
HLLS .OHMM                                             :HALS Laterolog Shallow Resistivity {F13.4}
HRM  .OHMM                                             :HALS Mud resistivity {F13.4}
HSO  .IN                                               :HALS Sonde Computed Standoff {F13.4}
HTEM .DEGC                                             :HTC Temperature {F13.4}
ITT  .S                                                :Integrated Transit Time {F13.4}
NPHI .V/V                                              :Thermal Neutron Porosity (Ratio Method) {F13.4}
PEFZ .                                                 :HRDD Standard Resolution Formation Photoelectric Factor {F13.4}
RHOZ .G/C3                                             :HRDD Standard Resolution Formation Density {F13.4}
#-----------------------------------------------------------------------------
# 
#     DEPT        DT           GR           HCAL         HDRA         HLLD         HLLS         HRM          HSO          HTEM         ITT          NPHI         PEFZ         RHOZ
#
~A  
# ...
 1541.2212      80.7701     211.1011       8.5383      -0.0040       2.9045       3.6794       0.0270       1.5192      70.1715       0.0034       0.2244       3.8113       2.5497
 1541.0688      77.0113     184.8141       8.5498      -0.0030       2.6658       3.3135       0.0270       1.5249      70.1715       0.0034       0.1773       3.7454       2.5528
 1540.9164      75.0079     177.7760       8.4346      -0.0076       2.6641       3.2815       0.0270       1.4673      70.1715       0.0034       0.1478       3.7284       2.5418
 1540.7640      73.7712     184.5268       8.4461      -0.0085       2.4982       3.0881       0.0270       1.4730      70.1715       0.0035       0.1646       3.7256       2.5285
 1540.6116      74.1436     206.1159       8.5037      -0.0097       2.7155       3.4069       0.0270       1.5019      70.1715       0.0035       0.1926       3.7365       2.5224
 1540.4592      77.4061     210.4249       8.4922      -0.0094       2.8365       3.5250       0.0270       1.4961      70.1715       0.0035       0.2006       3.7342       2.5329
 1540.3068      76.6005     208.0897       8.5383      -0.0079       2.9199       3.6385       0.0270       1.5192      70.1715       0.0036       0.1891       3.7217       2.5479
 1540.1544      77.3114     208.9454       8.5345      -0.0067       2.7680       3.4466       0.0270       1.5172      70.1715       0.0036       0.2062       3.7109       2.5541
 1540.0020      79.5583     221.2980       8.5614      -0.0072       2.5566       3.1769       0.0270       1.5307      70.1715       0.0037       0.2388       3.7233       2.5488
 1539.8496      79.6637     232.8259       8.6651      -0.0085       2.3285       2.8641       0.0270       1.5826      70.1715       0.0037       0.2498       3.7610       2.5396
 1539.6972      81.0760     231.9278       8.6997      -0.0095       2.4212       2.9217       0.0270       1.5999      70.1715       0.0037       0.2408       3.7921       2.5360
 1539.5448      82.7485     220.5807       8.6882      -0.0080       2.5517       3.0639       0.0270       1.5941      70.1715       0.0038       0.2088       3.7983       2.5446
 1539.3924      79.5380     207.4771       8.6305      -0.0058       2.7504       3.2503       0.0271       1.5653      70.1715       0.0038       0.1864       3.7941       2.5567
 1539.2400      76.7355     206.8013       8.5153      -0.0035       3.0948       3.6049       0.0271       1.5076      70.1715       0.0039       0.1919       3.7852       2.5686
 1539.0876      76.9415     204.0329       8.4922      -0.0032       2.9866       3.4641       0.0271       1.4961      70.1715       0.0039       0.2278       3.7891       2.5715
 1538.9352      77.7527     220.1528       8.5268      -0.0038       2.4296       2.8230       0.0271       1.5134      70.1715       0.0039       0.2561       3.7826       2.5694
 1538.7828      80.4775     222.6605       8.5268      -0.0029       2.2953       2.6636       0.0271       1.5134      70.1715       0.0040       0.2667       3.7415       2.5722
 1538.6304      82.7677     231.0306       8.5498      -0.0011       2.2541       2.6176       0.0274       1.5249      70.1715       0.0040       0.2451       3.6968       2.5776
 1538.4780      83.5288     224.8124       8.5498      -0.0001       2.2728       2.6598       0.0275       1.5249      70.1715       0.0041       0.2323       3.6775       2.5803
 1538.3256      83.0846     222.3047       8.5383      -0.0013       2.2924       2.6735       0.0275       1.5192      70.1715       0.0041       0.2206       3.7116       2.5737
 1538.1732      82.6485     224.3156       8.4692      -0.0035       2.3422       2.7287       0.0275       1.4846      70.1715       0.0041       0.2110       3.7530       2.5626
 1538.0208      82.6007     225.5066       8.4807      -0.0057       2.3824       2.7796       0.0275       1.4903      70.1715       0.0042       0.2196       3.8006       2.5461
 1537.8684      81.4679     230.4561       8.4922      -0.0080       2.4123       2.8439       0.0275       1.4961      70.1715       0.0042       0.2062       3.8115       2.5357
 1537.7160      82.9843     227.1525       8.4692      -0.0082       2.3024       2.7131       0.0275       1.4846      70.1715       0.0043       0.2225       3.7901       2.5373
 1537.5636      83.1269     232.1796       8.4576      -0.0091       2.3689       2.8004       0.0275       1.4788      70.1715       0.0043       0.2330       3.7827       2.5408
 1537.4112      82.4832     234.2683       8.4576      -0.0093       2.3192       2.7439       0.0275       1.4788      70.1715       0.0044       0.2316       3.7971       2.5383
 1537.2588      84.0220     240.6765       8.4461      -0.0078       2.3328       2.7611       0.0275       1.4730      70.0717       0.0044       0.2183       3.7777       2.5367
 1537.1064      82.6819     233.9257       8.4115      -0.0039       2.4403       2.9032       0.0275       1.4558      70.1715       0.0044       0.2088       3.7045       2.5437
 1536.9540      83.5537     233.3512       8.3885      -0.0009       2.2926       2.7003       0.0275       1.4442      70.1715       0.0045       0.2071       3.6535       2.5494
 1536.8016      83.2282     227.6611       8.4115      -0.0018       2.3876       2.8166       0.0275       1.4558      70.1715       0.0045       0.2101       3.6675       2.5439
 1536.6492      82.4176     228.2356       8.4423      -0.0053       2.2513       2.6438       0.0275       1.4711      70.1715       0.0046       0.2096       3.7061       2.5325
 1536.4968      82.0797     218.7557       8.4576      -0.0087       2.3916       2.7866       0.0275       1.4788      69.9719       0.0046       0.2090       3.7078       2.5275
 1536.3444      79.2491     210.4468       8.4115      -0.0102       2.6666       3.0618       0.0275       1.4558      69.9719       0.0046       0.1953       3.6754       2.5360
 1536.1920      79.7591     218.4903       8.4230      -0.0102       2.7917       3.2127       0.0275       1.4615      70.0717       0.0047       0.2055       3.6558       2.5499
 1536.0396      81.1090     226.1030       8.4115      -0.0049       2.4298       2.8930       0.0275       1.4558      69.9719       0.0047       0.2241       3.6652       2.5597
 1535.8872      83.3663     236.6800       8.3885       0.0039       2.1289       2.5787       0.0275       1.4442      70.1715       0.0048       0.2591       3.6944       2.5581
 1535.7348      84.8341     234.8796       8.4230       0.0036       2.1190       2.6043       0.0275       1.4615      69.9719       0.0048       0.2443       3.7299       2.5510
 1535.5824      83.1533     235.3105       8.4192      -0.0017       2.1536       2.6681       0.0275       1.4596      70.1715       0.0048       0.2375       3.7707       2.5441
 1535.4300      82.4766     234.5777       8.4115      -0.0106       2.3268       2.8977       0.0275       1.4558      69.9719       0.0049       0.2144       3.8329       2.5373
 1535.2776      83.5576     233.7927       8.4000      -0.0108       2.2113       2.7626       0.0275       1.4500      69.9719       0.0049       0.2201       3.8670       2.5318
 1535.1252      83.8957     236.8763       8.4115      -0.0102       2.1679       2.7040       0.0275       1.4558      69.9719       0.0050       0.2268       3.8608       2.5274
 1534.9728      84.2036     239.6500       8.4346      -0.0093       1.9748       2.4487       0.0275       1.4673      69.9719       0.0050       0.2301       3.8031       2.5309
 1534.8204      83.5292     238.6748       8.4692      -0.0072       1.9859       2.4279       0.0275       1.4846      69.9719       0.0051       0.2252       3.7238       2.5488
 1534.6680      81.2837     232.0003       8.4461      -0.0079       2.2638       2.7366       0.0275       1.4730      69.9719       0.0051       0.2005       3.6847       2.5612
 1534.5156      77.2780     217.5157       8.4269      -0.0076       2.5026       2.9858       0.0275       1.4634      69.9719       0.0051       0.1845       3.6483       2.5757
