~VERSION INFORMATION
VERS.           2.0   :CWLS Log ASCII Standard - VERSION 2.0
WRAP.           NO    :One Line per depth step
PROD.  Schlumberger   :LAS Producer
PROG.  DLIS to ASCII 19C2-270                          :LAS Program name and version
CREA.        2014/09/03 09:43                          :LAS Creation date {YYYY/MM/DD hh:mm}
DLIS_CREA.  2014-Sep-03 09:38                          :DLIS Creation date and time {YYYY-MMM-DD hh:mm}
SOURCE.     1-MPE-3-AL_hals-dslt-tdd-hgns-gr_resistividade_repetida.DLIS  :DLIS File Name
FILE-ID.     HALS_SONIC_TLD_MCFL_006PUP                :File Identification Number
#--------------------------------------------------
~WELL INFORMATION
#MNEM.UNIT      DATA             DESCRIPTION
#---- ------ --------------   -----------------------------
STRT .M      1554.9372       :START DEPTH     
STOP .M      1475.9940       :STOP DEPTH     
STEP .M        -0.1524       :STEP     
NULL .          -999.25      :NULL VALUE
COMP .        MARITIMA                                 :COMPANY
WELL .        1-MPE-3-AL                               :WELL
FLD  .        BLOCO BT-SEAL 3                          :FIELD
LOC  .        SAD69, MC=33*                            :LOCATION
CNTY .        ALAGOAS                                  :COUNTY
STAT .        08115020605                              :STATE
CTRY .        BRASIL                                   :COUNTRY
API  .                                                 :API NUMBER
UWI  .                                                 :UNIQUE WELL ID
DATE .        04/09/2003                               :LOG DATE
SRVC .        Schlumberger                             :SERVICE COMPANY
LATI .DEG     -09:28:10.251                            :LATITUDE
LONG .DEG     -35:38:05.710                            :LONGITUDE
GDAT .                                                 :GeoDetic Datum
#-----------------------------------------------------------------------------
~PARAMETER INFORMATION
#MNEM.UNIT    VALUE                      DESCRIPTION
#---- -----   --------------------       ------------------------
RUN  .          2                        :RUN NUMBER
PDAT .        NM                         :Permanent Datum
EPD  .M           0.000000               :Elevation of Permanent Datum above Mean Sea Level
LMF  .          MR                       :Logging Measured From (Name of Logging Elevation Reference)
APD  .M          78.000000               :Elevation of Depth Reference (LMF) above Permanent Datum
#-----------------------------------------------------------------------------
~CURVE INFORMATION
#MNEM.UNIT   API CODE                                  DESCRIPTION
#---- -----  --------                                  -----------------------
DEPT .M                                                :DEPTH (BOREHOLE) {F10.4}
DT   .US/F                                             :Delta-T {F13.4}
GR   .GAPI                                             :Gamma-Ray {F13.4}
HCAL .IN                                               :HRCC Cal. Caliper {F13.4}
HDRA .G/C3                                             :HRDD Density Correction {F13.4}
HLLD .OHMM                                             :HALS Laterolog Deep Resistivity {F13.4}
HLLS .OHMM                                             :HALS Laterolog Shallow Resistivity {F13.4}
HRM  .OHMM                                             :HALS Mud resistivity {F13.4}
HSO  .IN                                               :HALS Sonde Computed Standoff {F13.4}
HTEM .DEGC                                             :HTC Temperature {F13.4}
ITT  .S                                                :Integrated Transit Time {F13.4}
NPHI .V/V                                              :Thermal Neutron Porosity (Ratio Method) {F13.4}
PEFZ .                                                 :HRDD Standard Resolution Formation Photoelectric Factor {F13.4}
RHOZ .G/C3                                             :HRDD Standard Resolution Formation Density {F13.4}
#-----------------------------------------------------------------------------
# 
#     DEPT        DT           GR           HCAL         HDRA         HLLD         HLLS         HRM          HSO          HTEM         ITT          NPHI         PEFZ         RHOZ
#
~A  
# ...
 1513.7892      81.7448     127.2818       8.2847      -0.0069       0.3912       0.3896       0.0277       1.3924      69.9719       0.0105       0.2168       2.9968       2.3168
 1513.6368      81.6092     126.9705       8.2962      -0.0095       0.3971       0.3952       0.0277       1.3981      69.9719       0.0106       0.2084       3.0015       2.3084
 1513.4844      81.4121     119.5015       8.2962      -0.0092       0.3963       0.3804       0.0277       1.3981      69.9719       0.0106       0.2001       2.9569       2.3152
 1513.3320      81.2988     116.7969       8.2962      -0.0095       0.3955       0.3914       0.0277       1.3981      69.9719       0.0107       0.1986       2.9287       2.3189
 1513.1796      81.3453     115.0286       8.3078      -0.0093       0.3792       0.3774       0.0277       1.4039      69.9719       0.0107       0.2001       2.8982       2.3219
 1513.0272      81.7613     129.5358       8.2962      -0.0087       0.3629       0.3632       0.0277       1.3981      69.9719       0.0107       0.2067       2.8896       2.3198
 1512.8748      82.9277     135.3399       8.2732      -0.0077       0.3846       0.3833       0.0277       1.3866      69.9719       0.0108       0.2171       2.9013       2.3152
 1512.7224      83.9083     136.9426       8.2732      -0.0066       0.3990       0.3967       0.0277       1.3866      69.9719       0.0108       0.2343       2.9344       2.3098
 1512.5700      84.7485     131.0280       8.2732      -0.0071       0.4213       0.4187       0.0277       1.3866      69.9719       0.0109       0.2366       2.9542       2.3022
 1512.4176      84.9897     128.9583       8.3423      -0.0076       0.3972       0.3913       0.0277       1.4212      69.9719       0.0109       0.2082       2.9323       2.3011
 1512.2652      85.0524     129.9020       8.3654      -0.0088       0.3838       0.3817       0.0277       1.4327      69.9719       0.0109       0.1930       2.9021       2.2995
 1512.1128      84.3769     132.2258       8.3654      -0.0096       0.3677       0.3701       0.0277       1.4327      69.9719       0.0110       0.1876       2.8853       2.2972
 1511.9604      83.4984     131.3395       8.3885      -0.0096       0.3724       0.3745       0.0278       1.4442      69.9719       0.0110       0.2072       2.8583       2.2974
 1511.8080      82.8348     130.6831       8.3885      -0.0082       0.3687       0.3712       0.0279       1.4442      69.7723       0.0111       0.2056       2.8132       2.3036
 1511.6556      82.4923     127.2822       8.4000      -0.0069       0.3683       0.3705       0.0279       1.4500      69.7723       0.0111       0.2168       2.7757       2.3097
 1511.5032      82.6555     125.0085       8.4461      -0.0066       0.3550       0.3594       0.0279       1.4730      69.7723       0.0112       0.2180       2.7985       2.3060
 1511.3508      82.6588     125.2718       8.4038      -0.0069       0.3475       0.3478       0.0280       1.4519      69.7723       0.0112       0.2188       2.8670       2.2990
 1511.1984      82.7250     117.8010       8.3769      -0.0050       0.3475       0.3558       0.0280       1.4385      69.7723       0.0112       0.1994       2.9414       2.2973
 1511.0460      81.5594     114.2101       8.3769      -0.0050       0.3781       0.3902       0.0280       1.4385      69.7723       0.0113       0.1943       2.9668       2.3116
 1510.8936      79.1395     105.0888       8.3885      -0.0057       0.4314       0.4460       0.0280       1.4442      69.9719       0.0113       0.1771       2.9597       2.3329
 1510.7412      77.4231     111.7814       8.3654      -0.0067       0.5307       0.5550       0.0280       1.4327      69.7723       0.0114       0.1805       2.9339       2.3619
 1510.5888      76.2745     117.0718       8.3078      -0.0037       0.5505       0.5762       0.0280       1.4039      69.7723       0.0114       0.1737       2.9167       2.3855
 1510.4364      75.5396     129.3878       8.2271      -0.0012       0.5094       0.5423       0.0280       1.3635      69.7723       0.0114       0.1803       2.9329       2.3911
 1510.2840      75.4484     125.5233       8.2386       0.0006       0.4515       0.4769       0.0280       1.3693      69.7723       0.0115       0.1818       2.9375       2.3874
 1510.1316      76.8305     124.6857       8.2155       0.0034       0.4280       0.4578       0.0280       1.3578      69.7723       0.0115       0.1821       2.9392       2.3892
 1509.9792      77.2670     124.8133       8.2271       0.0055       0.4456       0.4762       0.0280       1.3635      69.8721       0.0115       0.1831       2.8906       2.3942
 1509.8268      78.6525     127.1114       8.1925       0.0042       0.4235       0.4510       0.0279       1.3462      69.7723       0.0116       0.1659       2.8570       2.3870
 1509.6744      80.3122     123.9848       8.2655      -0.0018       0.4253       0.4615       0.0279       1.3827      69.7723       0.0116       0.1651       2.8392       2.3684
 1509.5220      79.8159     117.2392       8.2386      -0.0068       0.4141       0.4511       0.0279       1.3693      69.7723       0.0117       0.1529       2.8781       2.3626
 1509.3696      78.0209     112.2685       8.2501      -0.0074       0.5034       0.5453       0.0279       1.3751      69.7723       0.0117       0.1553       2.9434       2.3803
 1509.2172      77.8897     113.2407       8.2040      -0.0055       0.6316       0.6692       0.0279       1.3520      69.7723       0.0117       0.1665       2.9900       2.3973
 1509.0648      80.0960     116.5642       8.1925      -0.0046       0.6601       0.6880       0.0279       1.3462      69.7723       0.0118       0.1815       2.9820       2.3853
 1508.9124      83.2565     126.7057       8.2271      -0.0058       0.5023       0.5324       0.0279       1.3635      69.7723       0.0118       0.2067       2.9391       2.3448
 1508.7600      87.0976     132.7331       8.2040      -0.0072       0.3582       0.3793       0.0279       1.3520      69.7723       0.0119       0.2197       2.9563       2.3063
 1508.6076      88.1595     136.1604       8.2617      -0.0070       0.3698       0.3953       0.0281       1.3808      69.7723       0.0119       0.2188       3.0466       2.2958
 1508.4552      86.7125     133.6453       8.2501      -0.0059       0.4252       0.4389       0.0281       1.3751      69.7723       0.0120       0.1993       3.1635       2.3042
 1508.3028      86.0164     132.5015       8.2155      -0.0056       0.4533       0.4644       0.0281       1.3578      69.7723       0.0120       0.1905       3.2178       2.3092
 1508.1504      84.6240     131.9014       8.2040      -0.0061       0.4214       0.4340       0.0282       1.3520      69.7723       0.0120       0.1959       3.1859       2.3060
 1507.9980      83.9524     127.6657       8.2617      -0.0079       0.3847       0.3998       0.0282       1.3808      69.7723       0.0121       0.2074       3.0944       2.2994
 1507.8456      82.6540     121.8337       8.2809      -0.0083       0.3602       0.3759       0.0282       1.3904      69.7723       0.0121       0.1956       2.9824       2.3046
 1507.6932      80.3496     119.7047       8.2617      -0.0072       0.3753       0.3851       0.0282       1.3808      69.7723       0.0122       0.1990       2.8963       2.3178
 1507.5408      78.7318     118.6771       8.1925      -0.0061       0.4061       0.4172       0.0282       1.3462      69.7723       0.0122       0.2049       2.8456       2.3274
 1507.3884      78.8708     120.6310       8.2040      -0.0064       0.4060       0.4103       0.0282       1.3520      69.7723       0.0122       0.2182       2.8420       2.3216
 1507.2360      80.5180     114.4547       8.2732      -0.0076       0.3793       0.3813       0.0282       1.3866      69.7723       0.0123       0.2311       2.8573       2.3060
 1507.0836      81.9039     114.1149       8.2732      -0.0073       0.3411       0.3365       0.0281       1.3866      69.7723       0.0123       0.2226       2.8917       2.2959
