~VERSION INFORMATION
VERS.           2.0   :CWLS Log ASCII Standard - VERSION 2.0
WRAP.           NO    :One Line per depth step
PROD.  Schlumberger   :LAS Producer
PROG.  DLIS to ASCII 19C2-270                          :LAS Program name and version
CREA.        2014/09/03 09:43                          :LAS Creation date {YYYY/MM/DD hh:mm}
DLIS_CREA.  2014-Sep-03 09:38                          :DLIS Creation date and time {YYYY-MMM-DD hh:mm}
SOURCE.     1-MPE-3-AL_hals-dslt-tdd-hgns-gr_resistividade_repetida.DLIS  :DLIS File Name
FILE-ID.     HALS_SONIC_TLD_MCFL_006PUP                :File Identification Number
#--------------------------------------------------
~WELL INFORMATION
#MNEM.UNIT      DATA             DESCRIPTION
#---- ------ --------------   -----------------------------
STRT .M      1554.9372       :START DEPTH     
STOP .M      1475.9940       :STOP DEPTH     
STEP .M        -0.1524       :STEP     
NULL .          -999.25      :NULL VALUE
COMP .        MARITIMA                                 :COMPANY
WELL .        1-MPE-3-AL                               :WELL
FLD  .        BLOCO BT-SEAL 3                          :FIELD
LOC  .        SAD69, MC=33*                            :LOCATION
CNTY .        ALAGOAS                                  :COUNTY
STAT .        08115020605                              :STATE
CTRY .        BRASIL                                   :COUNTRY
API  .                                                 :API NUMBER
UWI  .                                                 :UNIQUE WELL ID
DATE .        04/09/2003                               :LOG DATE
SRVC .        Schlumberger                             :SERVICE COMPANY
LATI .DEG     -09:28:10.251                            :LATITUDE
LONG .DEG     -35:38:05.710                            :LONGITUDE
GDAT .                                                 :GeoDetic Datum
#-----------------------------------------------------------------------------
~PARAMETER INFORMATION
#MNEM.UNIT    VALUE                      DESCRIPTION
#---- -----   --------------------       ------------------------
RUN  .          2                        :RUN NUMBER
PDAT .        NM                         :Permanent Datum
EPD  .M           0.000000               :Elevation of Permanent Datum above Mean Sea Level
LMF  .          MR                       :Logging Measured From (Name of Logging Elevation Reference)
APD  .M          78.000000               :Elevation of Depth Reference (LMF) above Permanent Datum
#-----------------------------------------------------------------------------
~CURVE INFORMATION
#MNEM.UNIT   API CODE                                  DESCRIPTION
#---- -----  --------                                  -----------------------
DEPT .M                                                :DEPTH (BOREHOLE) {F10.4}
DT   .US/F                                             :Delta-T {F13.4}
GR   .GAPI                                             :Gamma-Ray {F13.4}
HCAL .IN                                               :HRCC Cal. Caliper {F13.4}
HDRA .G/C3                                             :HRDD Density Correction {F13.4}
HLLD .OHMM                                             :HALS Laterolog Deep Resistivity {F13.4}
HLLS .OHMM                                             :HALS Laterolog Shallow Resistivity {F13.4}
HRM  .OHMM                                             :HALS Mud resistivity {F13.4}
HSO  .IN                                               :HALS Sonde Computed Standoff {F13.4}
HTEM .DEGC                                             :HTC Temperature {F13.4}
ITT  .S                                                :Integrated Transit Time {F13.4}
NPHI .V/V                                              :Thermal Neutron Porosity (Ratio Method) {F13.4}
PEFZ .                                                 :HRDD Standard Resolution Formation Photoelectric Factor {F13.4}
RHOZ .G/C3                                             :HRDD Standard Resolution Formation Density {F13.4}
#-----------------------------------------------------------------------------
# 
#     DEPT        DT           GR           HCAL         HDRA         HLLD         HLLS         HRM          HSO          HTEM         ITT          NPHI         PEFZ         RHOZ
#
~A  
# ...
 1534.3632      75.1889     206.1384       8.3885      -0.0070       2.9996       3.5575       0.0275       1.4442      69.9719       0.0052       0.1711       3.6280       2.5841
 1534.2108      77.4159     203.4744       8.3885      -0.0067       2.7297       3.2611       0.0275       1.4442      69.9719       0.0052       0.1872       3.6309       2.5862
 1534.0584      78.7536     212.3572       8.4461      -0.0080       2.1921       2.6418       0.0275       1.4730      69.9719       0.0053       0.2189       3.6815       2.5731
 1533.9060      81.5415     227.9342       8.4576      -0.0026       1.8416       2.2268       0.0275       1.4788      69.9719       0.0053       0.2418       3.7491       2.5506
 1533.7536      86.8611     232.3218       8.4884       0.0108       1.7495       2.1033       0.0275       1.4942      69.9719       0.0053       0.2677       3.7656       2.5429
 1533.6012      88.9739     234.3327       8.4692       0.0272       1.7451       2.1135       0.0275       1.4846      69.9719       0.0054       0.2615       3.7296       2.5478
 1533.4488      86.1095     217.3784       8.4807       0.0314       1.8940       2.2925       0.0275       1.4903      69.9719       0.0054       0.2361       3.6800       2.5551
 1533.2964      81.4904     204.5949       8.4576       0.0216       2.4777       2.9647       0.0275       1.4788      69.9719       0.0055       0.1936       3.6432       2.5583
 1533.1440      80.3429     190.0069       8.4346       0.0051       2.4518       2.9228       0.0275       1.4673      69.9719       0.0055       0.1987       3.6376       2.5559
 1532.9916      81.0765     197.2320       8.4576      -0.0071       1.9409       2.3269       0.0275       1.4788      69.9719       0.0055       0.2376       3.6765       2.5458
 1532.8392      81.7648     205.8501       8.3885      -0.0102       1.7949       2.1435       0.0275       1.4442      69.9719       0.0056       0.2855       3.7399       2.5271
 1532.6868      83.7155     211.3890       8.4269      -0.0055       1.9338       2.2722       0.0275       1.4634      69.9719       0.0056       0.2536       3.7632       2.5185
 1532.5344      83.4893     201.9504       8.3078       0.0017       2.0987       2.4602       0.0275       1.4039      69.9719       0.0057       0.2264       3.7778       2.5224
 1532.3820      78.4647     181.6979       8.2847       0.0056       2.0272       2.3514       0.0275       1.3924      69.9719       0.0057       0.1702       3.7496       2.5248
 1532.2296      77.5643     167.7653       8.2617       0.0047       1.8048       2.1006       0.0275       1.3808      69.9719       0.0057       0.1721       3.7533       2.5151
 1532.0772      77.8513     165.7792       8.2617      -0.0000       1.8078       2.1116       0.0275       1.3808      69.9719       0.0058       0.1681       3.7517       2.4962
 1531.9248      76.5461     176.4082       8.2962      -0.0018       2.0658       2.3776       0.0275       1.3981      69.9719       0.0058       0.1814       3.7455       2.4901
 1531.7724      78.8093     186.7499       8.3078      -0.0041       1.9696       2.2638       0.0275       1.4039      69.9719       0.0059       0.1920       3.7512       2.4803
 1531.6200      80.3118     199.1934       8.3423      -0.0040       1.8773       2.1594       0.0275       1.4212      69.9719       0.0059       0.2160       3.7303       2.4753
 1531.4676      81.6219     212.2642       8.3885      -0.0011       1.8879       2.1687       0.0275       1.4442      69.9719       0.0059       0.2481       3.7190       2.4795
 1531.3152      81.7402     224.9041       8.3577       0.0032       1.9167       2.2096       0.0275       1.4289      69.9719       0.0060       0.2505       3.7053       2.4886
 1531.1628      82.1437     225.0756       8.3423       0.0072       2.0125       2.3128       0.0275       1.4212      69.9719       0.0060       0.2311       3.6998       2.5000
 1531.0104      81.7548     214.5903       8.3769       0.0108       2.0542       2.3801       0.0275       1.4385      69.9719       0.0061       0.2133       3.6994       2.5103
 1530.8580      78.3194     204.0668       8.3769       0.0126       2.2684       2.6078       0.0275       1.4385      69.9719       0.0061       0.1986       3.6863       2.5259
 1530.7056      77.8912     192.4323       8.3539       0.0117       2.3149       2.6570       0.0275       1.4269      69.9719       0.0061       0.1897       3.6615       2.5367
 1530.5532      77.2706     197.3805       8.4692       0.0060       2.1417       2.4648       0.0275       1.4846      69.9719       0.0062       0.1921       3.6331       2.5267
 1530.4008      77.2666     196.8442       8.3423       0.0002       2.0379       2.3378       0.0275       1.4212      69.9719       0.0062       0.2039       3.6220       2.5032
 1530.2484      78.4617     202.2639       8.3193      -0.0028       1.9786       2.2711       0.0276       1.4096      69.9719       0.0063       0.2203       3.6078       2.4881
 1530.0960      80.4959     202.0556       8.3193      -0.0038       2.0205       2.3159       0.0276       1.4096      69.9719       0.0063       0.2142       3.6067       2.4906
 1529.9436      79.0132     191.1394       8.4038      -0.0020       2.1517       2.4658       0.0276       1.4519      69.9719       0.0063       0.1922       3.5802       2.5172
 1529.7912      76.0787     184.1397       8.3539      -0.0008       2.5929       2.9560       0.0276       1.4269      69.9719       0.0064       0.1671       3.5601       2.5430
 1529.6388      74.6032     173.2235       8.3539       0.0009       2.4469       2.8417       0.0276       1.4269      69.9719       0.0064       0.1546       3.5523       2.5540
 1529.4864      74.1830     183.8524       8.2732       0.0018       2.1919       2.6048       0.0276       1.3866      69.9719       0.0065       0.1788       3.5928       2.5382
 1529.3340      75.2442     191.1401       8.2501       0.0045       2.1022       2.4964       0.0275       1.3751      69.9719       0.0065       0.1983       3.6691       2.5162
 1529.1816      78.1955     197.7473       8.2617       0.0056       2.0808       2.4893       0.0275       1.3808      69.9719       0.0065       0.2006       3.6966       2.5011
 1529.0292      78.5850     203.4927       8.3308       0.0046       2.0776       2.5030       0.0275       1.4154      69.9719       0.0066       0.2326       3.6731       2.5005
 1528.8768      80.1571     214.0157       8.3423      -0.0007       1.9281       2.3505       0.0275       1.4212      69.9719       0.0066       0.2555       3.6255       2.5044
 1528.7244      82.7702     220.0074       8.4115      -0.0035       1.8718       2.2822       0.0275       1.4558      69.9719       0.0067       0.2792       3.6184       2.5183
 1528.5720      83.7842     226.1837       8.3885      -0.0051       1.8251       2.2369       0.0275       1.4442      69.9719       0.0067       0.2610       3.6491       2.5294
 1528.4196      84.0655     225.0410       8.3885      -0.0047       1.8746       2.2905       0.0275       1.4442      69.9719       0.0067       0.2510       3.6897       2.5388
 1528.2672      84.5366     235.5673       8.4115      -0.0060       1.9054       2.3303       0.0275       1.4558      69.9719       0.0068       0.2248       3.7244       2.5403
 1528.1148      84.8906     231.2162       8.3885      -0.0062       2.0331       2.4790       0.0275       1.4442      69.9719       0.0068       0.2139       3.7446       2.5406
 1527.9624      79.9142     220.0100       8.3885      -0.0003       2.4409       2.9641       0.0275       1.4442      69.9719       0.0069       0.1857       3.7331       2.5468
 1527.8100      80.4006     210.8174       8.3654       0.0068       2.4458       2.9965       0.0275       1.4327      69.9719       0.0069       0.1880       3.7254       2.5538
 1527.6576      78.7250     215.9883       8.3885       0.0053       2.2488       2.7980       0.0275       1.4442      69.9719       0.0069       0.2076       3.7139       2.5600
