~VERSION INFORMATION
VERS.           2.0   :CWLS Log ASCII Standard - VERSION 2.0
WRAP.           NO    :One Line per depth step
PROD.  Schlumberger   :LAS Producer
PROG.  DLIS to ASCII 19C2-270                          :LAS Program name and version
CREA.        2014/09/03 09:43                          :LAS Creation date {YYYY/MM/DD hh:mm}
DLIS_CREA.  2014-Sep-03 09:38                          :DLIS Creation date and time {YYYY-MMM-DD hh:mm}
SOURCE.     1-MPE-3-AL_hals-dslt-tdd-hgns-gr_resistividade_repetida.DLIS  :DLIS File Name
FILE-ID.     HALS_SONIC_TLD_MCFL_006PUP                :File Identification Number
#--------------------------------------------------
~WELL INFORMATION
#MNEM.UNIT      DATA             DESCRIPTION
#---- ------ --------------   -----------------------------
STRT .M      1554.9372       :START DEPTH     
STOP .M      1475.9940       :STOP DEPTH     
STEP .M        -0.1524       :STEP     
NULL .          -999.25      :NULL VALUE
COMP .        MARITIMA                                 :COMPANY
WELL .        1-MPE-3-AL                               :WELL
FLD  .        BLOCO BT-SEAL 3                          :FIELD
LOC  .        SAD69, MC=33*                            :LOCATION
CNTY .        ALAGOAS                                  :COUNTY
STAT .        08115020605                              :STATE
CTRY .        BRASIL                                   :COUNTRY
API  .                                                 :API NUMBER
UWI  .                                                 :UNIQUE WELL ID
DATE .        04/09/2003                               :LOG DATE
SRVC .        Schlumberger                             :SERVICE COMPANY
LATI .DEG     -09:28:10.251                            :LATITUDE
LONG .DEG     -35:38:05.710                            :LONGITUDE
GDAT .                                                 :GeoDetic Datum
#-----------------------------------------------------------------------------
~PARAMETER INFORMATION
#MNEM.UNIT    VALUE                      DESCRIPTION
#---- -----   --------------------       ------------------------
RUN  .          2                        :RUN NUMBER
PDAT .        NM                         :Permanent Datum
EPD  .M           0.000000               :Elevation of Permanent Datum above Mean Sea Level
LMF  .          MR                       :Logging Measured From (Name of Logging Elevation Reference)
APD  .M          78.000000               :Elevation of Depth Reference (LMF) above Permanent Datum
#-----------------------------------------------------------------------------
~CURVE INFORMATION
#MNEM.UNIT   API CODE                                  DESCRIPTION
#---- -----  --------                                  -----------------------
DEPT .M                                                :DEPTH (BOREHOLE) {F10.4}
DT   .US/F                                             :Delta-T {F13.4}
GR   .GAPI                                             :Gamma-Ray {F13.4}
HCAL .IN                                               :HRCC Cal. Caliper {F13.4}
HDRA .G/C3                                             :HRDD Density Correction {F13.4}
HLLD .OHMM                                             :HALS Laterolog Deep Resistivity {F13.4}
HLLS .OHMM                                             :HALS Laterolog Shallow Resistivity {F13.4}
HRM  .OHMM                                             :HALS Mud resistivity {F13.4}
HSO  .IN                                               :HALS Sonde Computed Standoff {F13.4}
HTEM .DEGC                                             :HTC Temperature {F13.4}
ITT  .S                                                :Integrated Transit Time {F13.4}
NPHI .V/V                                              :Thermal Neutron Porosity (Ratio Method) {F13.4}
PEFZ .                                                 :HRDD Standard Resolution Formation Photoelectric Factor {F13.4}
RHOZ .G/C3                                             :HRDD Standard Resolution Formation Density {F13.4}
#-----------------------------------------------------------------------------
# 
#     DEPT        DT           GR           HCAL         HDRA         HLLD         HLLS         HRM          HSO          HTEM         ITT          NPHI         PEFZ         RHOZ
#
~A  
# ...
 1506.9312      83.5996     115.8146       8.2501      -0.0066       0.3495       0.3448       0.0281       1.3751      69.7723       0.0124       0.2160       2.9467       2.2931
 1506.7788      83.4940     117.9691       8.2386      -0.0066       0.3718       0.3640       0.0281       1.3693      69.7723       0.0124       0.2019       3.0008       2.2961
 1506.6264      83.3017     123.5722       8.2386      -0.0066       0.3760       0.3642       0.0280       1.3693      69.7723       0.0124       0.2265       3.0277       2.3034
 1506.4740      83.2525     123.3089       8.2732      -0.0061       0.3704       0.3680       0.0280       1.3866      69.7723       0.0125       0.2213       3.0154       2.3144
 1506.3216      83.6298     126.3015       8.2732      -0.0072       0.3637       0.3557       0.0280       1.3866      69.7723       0.0125       0.2166       3.0003       2.3183
 1506.1692      84.1677     121.2040       8.2617      -0.0092       0.3607       0.3516       0.0278       1.3808      69.7723       0.0126       0.1965       3.0187       2.3110
 1506.0168      83.9856     116.5686       8.2732      -0.0106       0.3620       0.3525       0.0277       1.3866      69.7723       0.0126       0.2022       3.0506       2.3036
 1505.8644      83.8447     116.4487       8.2962      -0.0103       0.3684       0.3565       0.0277       1.3981      69.7723       0.0127       0.1980       3.1008       2.3017
 1505.7120      83.7137     113.5554       8.2962      -0.0096       0.3754       0.3623       0.0277       1.3981      69.7723       0.0127       0.1841       3.1246       2.3071
 1505.5596      83.0231     116.6682       8.2655      -0.0098       0.3743       0.3575       0.0277       1.3827      69.7723       0.0127       0.1850       3.1229       2.3111
 1505.4072      82.7760     119.1100       8.2501      -0.0102       0.3789       0.3682       0.0277       1.3751      69.7723       0.0128       0.2069       3.1025       2.3102
 1505.2548      83.4434     125.7378       8.2847      -0.0100       0.3591       0.3478       0.0277       1.3924      69.7723       0.0128       0.2219       3.0708       2.3079
 1505.1024      84.0766     125.9446       8.3193      -0.0114       0.3345       0.3280       0.0278       1.4096      69.7723       0.0129       0.2286       3.0680       2.2936
 1504.9500      85.0482     123.0457       8.3078      -0.0114       0.3260       0.3247       0.0278       1.4039      69.7723       0.0129       0.2222       3.0116       2.2889
 1504.7976      85.7096     124.3384       8.2962      -0.0119       0.3509       0.3495       0.0278       1.3981      69.7723       0.0130       0.2225       2.9445       2.2883
 1504.6452      84.6485     127.6651       8.2847      -0.0113       0.4073       0.4047       0.0278       1.3924      69.7723       0.0130       0.2154       2.8758       2.2962
 1504.4928      83.5729     132.4051       8.3116      -0.0044       0.4492       0.4472       0.0278       1.4058      69.7723       0.0130       0.2195       2.8547       2.3044
 1504.3404      81.5297     136.4268       8.3078      -0.0028       0.4669       0.4727       0.0278       1.4039      69.7723       0.0131       0.2171       2.8928       2.3089
 1504.1880      82.2717     142.6988       8.3078       0.0006       0.4549       0.4583       0.0278       1.4039      69.7723       0.0131       0.2423       2.9516       2.3156
 1504.0356      84.9759     140.8577       8.2962      -0.0028       0.4220       0.4284       0.0278       1.3981      69.7723       0.0132       0.2534       2.9884       2.3147
 1503.8832      84.8886     136.3801       8.2617      -0.0007       0.3695       0.3812       0.0278       1.3808      69.7723       0.0132       0.2671       2.9521       2.3120
 1503.7308      86.5715     126.3737       8.2962      -0.0007       0.3626       0.3765       0.0278       1.3981      69.7723       0.0132       0.2502       2.9046       2.3042
 1503.5784      86.3495     122.2297       8.2617      -0.0012       0.3928       0.4077       0.0278       1.3808      69.7723       0.0133       0.2304       2.8875       2.3067
 1503.4260      81.7873     115.6473       8.3116      -0.0015       0.4964       0.5105       0.0278       1.4058      69.7723       0.0133       0.1988       2.9050       2.3274
 1503.2736      77.8548     113.0238       8.3308      -0.0013       0.7227       0.7531       0.0278       1.4154      69.7723       0.0134       0.1667       2.8966       2.3685
 1503.1212      74.7184     114.4387       8.2732      -0.0009       0.8881       0.9265       0.0278       1.3866      69.7723       0.0134       0.1476       2.8776       2.4108
 1502.9688      71.5636     116.6980       8.2617      -0.0017       0.8218       0.8639       0.0278       1.3808      69.7723       0.0134       0.1595       2.9072       2.4263
 1502.8164      72.6768     127.6524       8.2732      -0.0016       0.6676       0.7152       0.0278       1.3866      69.7723       0.0135       0.1991       2.9681       2.4165
 1502.6640      76.6623     139.9339       8.2847      -0.0024       0.5490       0.5807       0.0278       1.3924      69.7723       0.0135       0.2230       3.0430       2.3801
 1502.5116      83.2857     146.0002       8.3193      -0.0015       0.4561       0.4826       0.0278       1.4096      69.7723       0.0136       0.2505       3.0409       2.3429
 1502.3592      86.0755     145.4256       8.2501      -0.0000       0.3853       0.4093       0.0278       1.3751      69.7723       0.0136       0.2458       3.0088       2.3041
 1502.2068      86.0114     139.3204       8.2271       0.0144       0.4297       0.4576       0.0278       1.3635      69.7723       0.0136       0.2468       3.0229       2.2976
 1502.0544      87.1667     144.4534       8.1810       0.0166       0.4911       0.5236       0.0278       1.3405      69.7723       0.0137       0.2302       3.0757       2.2912
 1501.9020      86.7754     142.4425       8.2040       0.0153       0.5238       0.5647       0.0278       1.3520      69.7723       0.0137       0.2132       3.1137       2.3039
 1501.7496      85.8283     134.6956       8.3423       0.0004       0.4474       0.4987       0.0278       1.4212      69.7723       0.0138       0.2087       3.1261       2.3057
 1501.5972      84.9287     123.5128       8.3193      -0.0049       0.4122       0.4643       0.0278       1.4096      69.7723       0.0138       0.2137       3.1665       2.3148
 1501.4448      85.9175     116.5677       8.2962      -0.0086       0.4228       0.4781       0.0278       1.3981      69.7723       0.0139       0.2260       3.2378       2.3176
 1501.2924      84.7723     119.4986       8.3308      -0.0100       0.5431       0.6125       0.0278       1.4154      69.7723       0.0139       0.2194       3.2753       2.3288
 1501.1400      83.7017     123.2555       8.3654      -0.0080       0.8314       0.9166       0.0278       1.4327      69.7723       0.0139       0.2092       3.2874       2.3622
 1500.9876      83.0344     134.3660       8.3769      -0.0064       1.0106       1.1305       0.0278       1.4385      69.7723       0.0140       0.2196       3.3119       2.3947
 1500.8352      82.3839     145.5985       8.4038      -0.0061       0.8123       0.9334       0.0278       1.4519      69.7723       0.0140       0.2319       3.3686       2.4060
 1500.6828      83.7139     154.6178       8.4115      -0.0066       0.6458       0.7593       0.0278       1.4558      69.7723       0.0141       0.2489       3.4360       2.3945
 1500.5304      84.6298     161.5617       8.4230      -0.0057       0.6427       0.7577       0.0278       1.4615      69.7723       0.0141       0.2422       3.5009       2.3830
 1500.3780      83.7238     178.7939       8.4000      -0.0041       0.7821       0.9158       0.0278       1.4500      69.7723       0.0142       0.2339       3.5459       2.3894
 1500.2256      81.3722     190.8890       8.4000      -0.0022       1.1370       1.3371       0.0278       1.4500      69.7723       0.0142       0.2397       3.5768       2.4187
