~VERSION INFORMATION
VERS.           2.0   :CWLS Log ASCII Standard - VERSION 2.0
WRAP.           NO    :One Line per depth step
PROD.  Schlumberger   :LAS Producer
PROG.  DLIS to ASCII 19C2-270                          :LAS Program name and version
CREA.        2014/09/03 09:43                          :LAS Creation date {YYYY/MM/DD hh:mm}
DLIS_CREA.  2014-Sep-03 09:38                          :DLIS Creation date and time {YYYY-MMM-DD hh:mm}
SOURCE.     1-MPE-3-AL_hals-dslt-tdd-hgns-gr_resistividade_repetida.DLIS  :DLIS File Name
FILE-ID.     HALS_SONIC_TLD_MCFL_006PUP                :File Identification Number
#--------------------------------------------------
~WELL INFORMATION
#MNEM.UNIT      DATA             DESCRIPTION
#---- ------ --------------   -----------------------------
STRT .M      1554.9372       :START DEPTH     
STOP .M      1475.9940       :STOP DEPTH     
STEP .M        -0.1524       :STEP     
NULL .          -999.25      :NULL VALUE
COMP .        MARITIMA                                 :COMPANY
WELL .        1-MPE-3-AL                               :WELL
FLD  .        BLOCO BT-SEAL 3                          :FIELD
LOC  .        SAD69, MC=33*                            :LOCATION
CNTY .        ALAGOAS                                  :COUNTY
STAT .        08115020605                              :STATE
CTRY .        BRASIL                                   :COUNTRY
API  .                                                 :API NUMBER
UWI  .                                                 :UNIQUE WELL ID
DATE .        04/09/2003                               :LOG DATE
SRVC .        Schlumberger                             :SERVICE COMPANY
LATI .DEG     -09:28:10.251                            :LATITUDE
LONG .DEG     -35:38:05.710                            :LONGITUDE
GDAT .                                                 :GeoDetic Datum
#-----------------------------------------------------------------------------
~PARAMETER INFORMATION
#MNEM.UNIT    VALUE                      DESCRIPTION
#---- -----   --------------------       ------------------------
RUN  .          2                        :RUN NUMBER
PDAT .        NM                         :Permanent Datum
EPD  .M           0.000000               :Elevation of Permanent Datum above Mean Sea Level
LMF  .          MR                       :Logging Measured From (Name of Logging Elevation Reference)
APD  .M          78.000000               :Elevation of Depth Reference (LMF) above Permanent Datum
#-----------------------------------------------------------------------------
~CURVE INFORMATION
#MNEM.UNIT   API CODE                                  DESCRIPTION
#---- -----  --------                                  -----------------------
DEPT .M                                                :DEPTH (BOREHOLE) {F10.4}
DT   .US/F                                             :Delta-T {F13.4}
GR   .GAPI                                             :Gamma-Ray {F13.4}
HCAL .IN                                               :HRCC Cal. Caliper {F13.4}
HDRA .G/C3                                             :HRDD Density Correction {F13.4}
HLLD .OHMM                                             :HALS Laterolog Deep Resistivity {F13.4}
HLLS .OHMM                                             :HALS Laterolog Shallow Resistivity {F13.4}
HRM  .OHMM                                             :HALS Mud resistivity {F13.4}
HSO  .IN                                               :HALS Sonde Computed Standoff {F13.4}
HTEM .DEGC                                             :HTC Temperature {F13.4}
ITT  .S                                                :Integrated Transit Time {F13.4}
NPHI .V/V                                              :Thermal Neutron Porosity (Ratio Method) {F13.4}
PEFZ .                                                 :HRDD Standard Resolution Formation Photoelectric Factor {F13.4}
RHOZ .G/C3                                             :HRDD Standard Resolution Formation Density {F13.4}
#-----------------------------------------------------------------------------
# 
#     DEPT        DT           GR           HCAL         HDRA         HLLD         HLLS         HRM          HSO          HTEM         ITT          NPHI         PEFZ         RHOZ
#
~A  
# ...
 1520.6472      75.3199     153.4018       8.4346      -0.0063       1.2134       1.4939       0.0275       1.4673      69.9719       0.0087       0.1835       3.4784       2.4573
 1520.4948      74.5166     150.9288       8.3885      -0.0064       1.7360       2.1432       0.0275       1.4442      69.9719       0.0088       0.1606       3.4971       2.5004
 1520.3424      72.4102     168.5173       8.3654      -0.0055       1.5758       1.9657       0.0275       1.4327      69.9719       0.0088       0.1788       3.5436       2.5099
 1520.1900      74.0353     200.5479       8.4000      -0.0044       1.6685       2.0862       0.0275       1.4500      69.9719       0.0089       0.2101       3.5792       2.5028
 1520.0376      75.3865     220.2571       8.3654      -0.0030       2.1324       2.6246       0.0275       1.4327      69.9719       0.0089       0.2211       3.5808       2.5007
 1519.8852      74.8524     220.7251       8.3885      -0.0055       2.0120       2.4470       0.0275       1.4442      69.9719       0.0089       0.2124       3.6023       2.4966
 1519.7328      75.6735     219.1451       8.3423      -0.0047       1.5977       1.9042       0.0275       1.4212      69.9719       0.0090       0.2239       3.5839       2.4859
 1519.5804      77.7628     208.6750       8.2732      -0.0030       0.8961       1.0645       0.0275       1.3866      69.9719       0.0090       0.2260       3.5128       2.4507
 1519.4280      80.3751     186.4531       8.2117      -0.0028       0.6002       0.7220       0.0275       1.3558      69.9719       0.0091       0.2262       3.3620       2.4090
 1519.2756      78.6911     151.6069       8.2155       0.0023       0.5562       0.6610       0.0275       1.3578      69.9719       0.0091       0.2018       3.2039       2.4052
 1519.1232      74.7361     130.4774       8.1810       0.0088       0.8181       0.9539       0.0275       1.3405      69.9719       0.0091       0.1807       3.0986       2.4245
 1518.9708      69.9845     118.9001       8.0887       0.0114       1.0579       1.2069       0.0275       1.2944      69.9719       0.0092       0.1696       3.0049       2.4337
 1518.8184      66.8619     124.3011       8.1694       0.0058       0.8810       1.0133       0.0275       1.3347      69.9719       0.0092       0.1688       2.9773       2.4045
 1518.6660      68.5630     132.5124       8.1925      -0.0013       0.7949       0.9086       0.0276       1.3462      69.9719       0.0092       0.2014       2.9835       2.3755
 1518.5136      74.2826     145.2388       8.1810      -0.0046       0.6220       0.6922       0.0276       1.3405      69.9719       0.0093       0.2393       3.0212       2.3636
 1518.3612      80.7680     146.6817       8.1579      -0.0075       0.4890       0.5447       0.0276       1.3290      69.9719       0.0093       0.2865       3.0193       2.3447
 1518.2088      84.8957     138.7577       8.2040      -0.0093       0.4203       0.4632       0.0275       1.3520      69.9719       0.0094       0.2813       2.9952       2.3196
 1518.0564      86.9939     130.8578       8.2271      -0.0087       0.4274       0.4670       0.0275       1.3635      69.9719       0.0094       0.2649       3.0193       2.3032
 1517.9040      87.8618     129.9245       8.2386      -0.0053       0.4424       0.4784       0.0275       1.3693      69.9719       0.0094       0.2455       3.0522       2.3091
 1517.7516      87.0828     134.5209       8.2040      -0.0038       0.4290       0.4533       0.0275       1.3520      69.9719       0.0095       0.2651       3.0692       2.3112
 1517.5992      86.0379     135.3214       8.2117      -0.0028       0.4200       0.4495       0.0275       1.3558      69.9719       0.0095       0.2593       3.0210       2.3122
 1517.4468      85.0316     135.9350       8.2501      -0.0037       0.4143       0.4421       0.0275       1.3751      69.9719       0.0096       0.2478       2.9581       2.3075
 1517.2944      83.8942     130.3911       8.2271      -0.0044       0.4152       0.4423       0.0275       1.3635      69.9719       0.0096       0.2120       2.9032       2.3072
 1517.1420      81.5407     126.8615       8.2501      -0.0058       0.4497       0.4705       0.0275       1.3751      69.9719       0.0097       0.1967       2.8904       2.3089
 1516.9896      77.5142     118.9373       8.2501      -0.0061       0.5801       0.6016       0.0275       1.3751      69.9719       0.0097       0.1784       2.8936       2.3262
 1516.8372      75.0193     115.8631       8.2155      -0.0050       0.7738       0.7865       0.0275       1.3578      69.9719       0.0097       0.1753       2.9054       2.3539
 1516.6848      74.4322     118.1613       8.2732      -0.0057       0.6282       0.6343       0.0275       1.3866      69.9719       0.0098       0.1863       2.9067       2.3689
 1516.5324      75.1662     125.1608       8.2501      -0.0067       0.4973       0.5154       0.0275       1.3751      69.9719       0.0098       0.2003       2.9052       2.3634
 1516.3800      78.2940     128.6080       8.2501      -0.0067       0.4348       0.4473       0.0275       1.3751      69.9719       0.0098       0.2118       2.8986       2.3503
 1516.2276      80.0827     122.0008       8.2501      -0.0047       0.4367       0.4458       0.0275       1.3751      69.9719       0.0099       0.2005       2.9024       2.3448
 1516.0752      80.3746     118.4986       8.2962      -0.0045       0.4307       0.4330       0.0275       1.3981      69.9719       0.0099       0.1976       2.8960       2.3412
 1515.9228      80.7003     114.9077       8.2962      -0.0055       0.4375       0.4444       0.0275       1.3981      69.9719       0.0100       0.1961       2.8752       2.3392
 1515.7704      80.3965     119.2970       8.3078      -0.0065       0.4525       0.4581       0.0275       1.4039      69.9719       0.0100       0.1929       2.8315       2.3393
 1515.6180      80.3330     118.0043       8.2962      -0.0064       0.4666       0.4653       0.0275       1.3981      69.9719       0.0100       0.1880       2.8051       2.3408
 1515.4656      80.4026     115.9934       8.3308      -0.0074       0.4441       0.4483       0.0275       1.4154      69.9719       0.0101       0.1789       2.8169       2.3344
 1515.3132      80.4623     116.3441       8.3116      -0.0083       0.4305       0.4328       0.0275       1.4058      69.9719       0.0101       0.1829       2.8422       2.3286
 1515.1608      80.8261     116.9393       8.2962      -0.0092       0.4152       0.4162       0.0276       1.3981      69.9719       0.0102       0.1872       2.8667       2.3227
 1515.0084      81.0078     119.9556       8.2962      -0.0091       0.4025       0.3944       0.0276       1.3981      69.9719       0.0102       0.1969       2.8678       2.3205
 1514.8560      81.1419     120.9611       8.2962      -0.0095       0.3904       0.3889       0.0276       1.3981      69.9719       0.0102       0.2129       2.8663       2.3147
 1514.7036      81.6978     123.2385       8.2617      -0.0088       0.3857       0.3839       0.0276       1.3808      69.9719       0.0103       0.2039       2.8858       2.3069
 1514.5512      82.2377     123.6695       8.2962      -0.0084       0.3866       0.3754       0.0277       1.3981      69.9719       0.0103       0.1942       2.9082       2.3018
 1514.3988      82.4713     122.9276       8.3308      -0.0061       0.3855       0.3815       0.0277       1.4154      69.9719       0.0104       0.1748       2.9073       2.3096
 1514.2464      82.5226     118.0441       8.3078      -0.0045       0.3892       0.3849       0.0277       1.4039      69.9719       0.0104       0.1816       2.9025       2.3221
 1514.0940      82.3636     119.6699       8.3078      -0.0027       0.3919       0.3883       0.0277       1.4039      69.9719       0.0104       0.1947       2.9090       2.3341
 1513.9416      82.0729     121.9917       8.2962      -0.0044       0.3926       0.3871       0.0277       1.3981      69.9719       0.0105       0.2147       2.9660       2.3266
