~VERSION INFORMATION
VERS.           2.0   :CWLS Log ASCII Standard - VERSION 2.0
WRAP.           NO    :One Line per depth step
PROD.  Schlumberger   :LAS Producer
PROG.  DLIS to ASCII 19C2-270                          :LAS Program name and version
CREA.        2014/09/03 09:43                          :LAS Creation date {YYYY/MM/DD hh:mm}
DLIS_CREA.  2014-Sep-03 09:38                          :DLIS Creation date and time {YYYY-MMM-DD hh:mm}
SOURCE.     1-MPE-3-AL_hals-dslt-tdd-hgns-gr_resistividade_repetida.DLIS  :DLIS File Name
FILE-ID.     HALS_SONIC_TLD_MCFL_006PUP                :File Identification Number
#--------------------------------------------------
~WELL INFORMATION
#MNEM.UNIT      DATA             DESCRIPTION
#---- ------ --------------   -----------------------------
STRT .M      1554.9372       :START DEPTH     
STOP .M      1475.9940       :STOP DEPTH     
STEP .M        -0.1524       :STEP     
NULL .          -999.25      :NULL VALUE
COMP .        MARITIMA                                 :COMPANY
WELL .        1-MPE-3-AL                               :WELL
FLD  .        BLOCO BT-SEAL 3                          :FIELD
LOC  .        SAD69, MC=33*                            :LOCATION
CNTY .        ALAGOAS                                  :COUNTY
STAT .        08115020605                              :STATE
CTRY .        BRASIL                                   :COUNTRY
API  .                                                 :API NUMBER
UWI  .                                                 :UNIQUE WELL ID
DATE .        04/09/2003                               :LOG DATE
SRVC .        Schlumberger                             :SERVICE COMPANY
LATI .DEG     -09:28:10.251                            :LATITUDE
LONG .DEG     -35:38:05.710                            :LONGITUDE
GDAT .                                                 :GeoDetic Datum
#-----------------------------------------------------------------------------
~PARAMETER INFORMATION
#MNEM.UNIT    VALUE                      DESCRIPTION
#---- -----   --------------------       ------------------------
RUN  .          2                        :RUN NUMBER
PDAT .        NM                         :Permanent Datum
EPD  .M           0.000000               :Elevation of Permanent Datum above Mean Sea Level
LMF  .          MR                       :Logging Measured From (Name of Logging Elevation Reference)
APD  .M          78.000000               :Elevation of Depth Reference (LMF) above Permanent Datum
#-----------------------------------------------------------------------------
~CURVE INFORMATION
#MNEM.UNIT   API CODE                                  DESCRIPTION
#---- -----  --------                                  -----------------------
DEPT .M                                                :DEPTH (BOREHOLE) {F10.4}
DT   .US/F                                             :Delta-T {F13.4}
GR   .GAPI                                             :Gamma-Ray {F13.4}
HCAL .IN                                               :HRCC Cal. Caliper {F13.4}
HDRA .G/C3                                             :HRDD Density Correction {F13.4}
HLLD .OHMM                                             :HALS Laterolog Deep Resistivity {F13.4}
HLLS .OHMM                                             :HALS Laterolog Shallow Resistivity {F13.4}
HRM  .OHMM                                             :HALS Mud resistivity {F13.4}
HSO  .IN                                               :HALS Sonde Computed Standoff {F13.4}
HTEM .DEGC                                             :HTC Temperature {F13.4}
ITT  .S                                                :Integrated Transit Time {F13.4}
NPHI .V/V                                              :Thermal Neutron Porosity (Ratio Method) {F13.4}
PEFZ .                                                 :HRDD Standard Resolution Formation Photoelectric Factor {F13.4}
RHOZ .G/C3                                             :HRDD Standard Resolution Formation Density {F13.4}
#-----------------------------------------------------------------------------
# 
#     DEPT        DT           GR           HCAL         HDRA         HLLD         HLLS         HRM          HSO          HTEM         ITT          NPHI         PEFZ         RHOZ
#
~A  
# ...
 1486.3572      78.6282     131.5072       8.2501      -0.0038       0.7525       0.7617       0.0280       1.3751      69.5727       0.0178       0.1846       3.0497       2.3654
 1486.2048      78.4069     131.3464       8.2501      -0.0027       0.5788       0.5979       0.0280       1.3751      69.5727       0.0179       0.1805       3.0114       2.3668
 1486.0524      78.8194     137.8721       8.2386      -0.0049       0.4867       0.5041       0.0280       1.3693      69.5727       0.0179       0.1895       2.9692       2.3454
 1485.9000      81.8342     138.2970       8.2732      -0.0079       0.4591       0.4581       0.0280       1.3866      69.5727       0.0180       0.2001       2.9551       2.3211
 1485.7476      84.3257     137.7397       8.2386      -0.0095       0.5213       0.5285       0.0280       1.3693      69.5727       0.0180       0.2185       2.9508       2.3077
 1485.5952      84.3648     139.4629       8.2348      -0.0099       0.5025       0.5106       0.0280       1.3674      69.5727       0.0180       0.2129       2.9344       2.3040
 1485.4428      84.3302     137.5758       8.2271      -0.0103       0.4361       0.4405       0.0280       1.3635      69.5727       0.0181       0.2167       2.9084       2.2994
 1485.2904      83.5880     133.6475       8.2040      -0.0087       0.3747       0.3797       0.0280       1.3520      69.5727       0.0181       0.2091       2.8539       2.3062
 1485.1380      82.8017     125.1734       8.1963      -0.0083       0.3654       0.3765       0.0280       1.3482      69.5727       0.0182       0.2132       2.8304       2.3090
 1484.9856      82.8689     119.5944       8.2271      -0.0077       0.4266       0.4320       0.0280       1.3635      69.5727       0.0182       0.2179       2.8302       2.3125
 1484.8332      82.9131     120.6500       8.2271      -0.0079       0.4713       0.4677       0.0280       1.3635      69.5727       0.0183       0.2256       2.8453       2.3114
 1484.6808      83.3863     115.2719       8.1464      -0.0062       0.5059       0.5040       0.0280       1.3232      69.5727       0.0183       0.2427       2.8647       2.3147
 1484.5284      83.4870     119.1284       8.2040      -0.0048       0.5108       0.5017       0.0280       1.3520      69.5727       0.0183       0.2446       2.9119       2.3229
 1484.3760      83.4185     117.2945       8.2040      -0.0042       0.5466       0.5292       0.0280       1.3520      69.5727       0.0184       0.2503       3.0371       2.3346
 1484.2236      83.6611     118.2199       8.2040      -0.0061       0.4778       0.4492       0.0280       1.3520      69.5727       0.0184       0.2461       3.1658       2.3390
 1484.0712      83.6760     110.2012       8.1925      -0.0067       0.3397       0.3291       0.0280       1.3462      69.5727       0.0185       0.2256       3.2324       2.3274
 1483.9188      83.7213     108.4656       8.2040      -0.0016       0.3052       0.2953       0.0280       1.3520      69.5727       0.0185       0.2139       3.1709       2.3062
 1483.7664      82.6810     112.7746       8.2040      -0.0012       0.4434       0.4095       0.0280       1.3520      69.5727       0.0185       0.2000       3.0544       2.3033
 1483.6140      81.2374     118.9509       8.2271      -0.0016       0.5534       0.5133       0.0279       1.3635      69.5727       0.0186       0.2176       2.9634       2.3165
 1483.4616      79.9487     125.9676       8.2501      -0.0086       0.5346       0.5015       0.0279       1.3751      69.5727       0.0186       0.2213       2.9286       2.3296
 1483.3092      78.7341     126.7779       8.2194      -0.0082       0.5202       0.4994       0.0279       1.3597      69.5727       0.0187       0.2149       2.9258       2.3337
 1483.1568      78.5432     125.3416       8.2501      -0.0072       0.5873       0.5542       0.0279       1.3751      69.5727       0.0187       0.2035       2.9098       2.3377
 1483.0044      78.5138     120.6580       8.2847      -0.0055       0.5972       0.5700       0.0279       1.3924      69.5727       0.0187       0.1897       2.9101       2.3409
 1482.8520      78.1056     121.2841       8.2271      -0.0037       0.5737       0.5489       0.0279       1.3635      69.5727       0.0188       0.1874       2.9114       2.3413
 1482.6996      80.3429     119.9914       8.2501      -0.0040       0.5216       0.4765       0.0279       1.3751      69.5727       0.0188       0.1970       2.9329       2.3316
 1482.5472      81.5166     119.3604       8.2809      -0.0056       0.5213       0.4997       0.0279       1.3904      69.5727       0.0189       0.2032       2.9660       2.3173
 1482.3948      82.5491     115.7695       8.2962      -0.0046       0.4230       0.4140       0.0279       1.3981      69.5727       0.0189       0.2152       2.9993       2.3063
 1482.2424      82.6105     117.4931       8.2962      -0.0053       0.4191       0.4114       0.0279       1.3981      69.5727       0.0189       0.1968       3.0062       2.3033
 1482.0900      81.0542     117.3464       8.2847      -0.0054       0.4481       0.4446       0.0279       1.3924      69.5727       0.0190       0.1827       2.9679       2.3132
 1481.9376      80.5047     119.9318       8.3193      -0.0092       0.4614       0.4593       0.0279       1.4096      69.5727       0.0190       0.1685       2.9341       2.3202
 1481.7852      80.8293     120.6500       8.3423      -0.0109       0.4656       0.4667       0.0279       1.4212      69.5727       0.0191       0.1804       2.9220       2.3241
 1481.6328      81.0916     135.2712       8.3423      -0.0100       0.5175       0.5028       0.0279       1.4212      69.5727       0.0191       0.2039       2.9659       2.3285
 1481.4804      79.9012     159.5454       8.3539      -0.0090       0.6789       0.6928       0.0279       1.4269      69.5727       0.0191       0.2110       3.0840       2.3457
 1481.3280      78.5847     194.3051       8.3654      -0.0044       0.9817       1.0062       0.0277       1.4327      69.5727       0.0192       0.2152       3.2961       2.3839
 1481.1756      76.5554     208.1267       8.3308      -0.0012       1.4253       1.4714       0.0277       1.4154      69.5727       0.0192       0.2158       3.5699       2.4249
 1481.0232      76.0257     191.6087       8.3654       0.0019       1.1345       1.2064       0.0277       1.4327      69.5727       0.0193       0.2171       3.8339       2.4405
 1480.8708      74.8101     162.8996       8.3885       0.0059       0.9198       1.0063       0.0277       1.4442      69.5727       0.0193       0.2123       3.9526       2.4251
 1480.7184      73.8466     143.3652       8.3539       0.0045       0.8899       0.9698       0.0277       1.4269      69.5727       0.0193       0.1947       3.8617       2.4045
 1480.5660      74.4625     152.9888       8.3654       0.0033       1.1117       1.1709       0.0277       1.4327      69.5727       0.0194       0.1902       3.6748       2.4064
 1480.4136      74.4516     169.7762       8.3539      -0.0015       1.0031       1.0750       0.0277       1.4269      69.5727       0.0194       0.1994       3.5766       2.4179
 1480.2612      76.2297     184.3550       8.3539      -0.0016       0.8966       0.9715       0.0277       1.4269      69.5727       0.0195       0.2205       3.5761       2.4257
 1480.1088      77.6062     184.6422       8.3193      -0.0023       0.8841       0.9537       0.0278       1.4096      69.5727       0.0195       0.2318       3.5769       2.4188
 1479.9564      78.3062     169.9915       8.4576      -0.0048       0.8293       0.8966       0.0278       1.4788      69.5727       0.0195       0.2128       3.4890       2.4036
 1479.8040      77.5932     155.9873       8.4115      -0.0074       0.7525       0.8182       0.0278       1.4558      69.5727       0.0196       0.1817       3.3567       2.3821
 1479.6516      75.4903     142.1730       8.4576      -0.0094       0.7264       0.7904       0.0279       1.4788      69.5727       0.0196       0.1439       3.1863       2.3761
