~VERSION INFORMATION
VERS.           2.0   :CWLS Log ASCII Standard - VERSION 2.0
WRAP.           NO    :One Line per depth step
PROD.  Schlumberger   :LAS Producer
PROG.  DLIS to ASCII 19C2-270                          :LAS Program name and version
CREA.        2014/09/03 09:43                          :LAS Creation date {YYYY/MM/DD hh:mm}
DLIS_CREA.  2014-Sep-03 09:38                          :DLIS Creation date and time {YYYY-MMM-DD hh:mm}
SOURCE.     1-MPE-3-AL_hals-dslt-tdd-hgns-gr_resistividade_repetida.DLIS  :DLIS File Name
FILE-ID.     HALS_SONIC_TLD_MCFL_006PUP                :File Identification Number
#--------------------------------------------------
~WELL INFORMATION
#MNEM.UNIT      DATA             DESCRIPTION
#---- ------ --------------   -----------------------------
STRT .M      1554.9372       :START DEPTH     
STOP .M      1475.9940       :STOP DEPTH     
STEP .M        -0.1524       :STEP     
NULL .          -999.25      :NULL VALUE
COMP .        MARITIMA                                 :COMPANY
WELL .        1-MPE-3-AL                               :WELL
FLD  .        BLOCO BT-SEAL 3                          :FIELD
LOC  .        SAD69, MC=33*                            :LOCATION
CNTY .        ALAGOAS                                  :COUNTY
STAT .        08115020605                              :STATE
CTRY .        BRASIL                                   :COUNTRY
API  .                                                 :API NUMBER
UWI  .                                                 :UNIQUE WELL ID
DATE .        04/09/2003                               :LOG DATE
SRVC .        Schlumberger                             :SERVICE COMPANY
LATI .DEG     -09:28:10.251                            :LATITUDE
LONG .DEG     -35:38:05.710                            :LONGITUDE
GDAT .                                                 :GeoDetic Datum
#-----------------------------------------------------------------------------
~PARAMETER INFORMATION
#MNEM.UNIT    VALUE                      DESCRIPTION
#---- -----   --------------------       ------------------------
RUN  .          2                        :RUN NUMBER
PDAT .        NM                         :Permanent Datum
EPD  .M           0.000000               :Elevation of Permanent Datum above Mean Sea Level
LMF  .          MR                       :Logging Measured From (Name of Logging Elevation Reference)
APD  .M          78.000000               :Elevation of Depth Reference (LMF) above Permanent Datum
#-----------------------------------------------------------------------------
~CURVE INFORMATION
#MNEM.UNIT   API CODE                                  DESCRIPTION
#---- -----  --------                                  -----------------------
DEPT .M                                                :DEPTH (BOREHOLE) {F10.4}
DT   .US/F                                             :Delta-T {F13.4}
GR   .GAPI                                             :Gamma-Ray {F13.4}
HCAL .IN                                               :HRCC Cal. Caliper {F13.4}
HDRA .G/C3                                             :HRDD Density Correction {F13.4}
HLLD .OHMM                                             :HALS Laterolog Deep Resistivity {F13.4}
HLLS .OHMM                                             :HALS Laterolog Shallow Resistivity {F13.4}
HRM  .OHMM                                             :HALS Mud resistivity {F13.4}
HSO  .IN                                               :HALS Sonde Computed Standoff {F13.4}
HTEM .DEGC                                             :HTC Temperature {F13.4}
ITT  .S                                                :Integrated Transit Time {F13.4}
NPHI .V/V                                              :Thermal Neutron Porosity (Ratio Method) {F13.4}
PEFZ .                                                 :HRDD Standard Resolution Formation Photoelectric Factor {F13.4}
RHOZ .G/C3                                             :HRDD Standard Resolution Formation Density {F13.4}
#-----------------------------------------------------------------------------
# 
#     DEPT        DT           GR           HCAL         HDRA         HLLD         HLLS         HRM          HSO          HTEM         ITT          NPHI         PEFZ         RHOZ
#
~A  
 1554.9372      75.9736     200.4750       8.5652    -999.2500       4.3392       5.7101       0.0273       1.5365      70.1715       0.0000       0.1755    -999.2500    -999.2500
 1554.7848      75.7912     197.3150       8.4576    -999.2500       4.5269       5.9109       0.0253       1.4788      70.1715       0.0001       0.1748    -999.2500    -999.2500
 1554.6324      74.8618     191.2823       8.3885    -999.2500       4.8514       6.2674       0.0284       1.4442      70.1715       0.0001       0.1832    -999.2500    -999.2500
 1554.4800      75.4990     193.0452       8.4692    -999.2500       4.9131       6.2614       0.0272       1.4846      70.1715       0.0002       0.1825    -999.2500    -999.2500
 1554.3276      73.8250     194.4815       8.3769    -999.2500       5.3567       6.6436       0.0259       1.4385      70.1715       0.0002       0.1821    -999.2500    -999.2500
 1554.1752      71.1450     192.9388       8.3308    -999.2500       7.7110       9.3859       0.0281       1.4154      70.1715       0.0002       0.1573    -999.2500    -999.2500
 1554.0228      69.1681     181.7353       8.3193    -999.2500      13.9377      16.4312       0.0224       1.4096      70.1715       0.0003       0.1276    -999.2500    -999.2500
 1553.8704      64.7342     166.3664       8.4461    -999.2500      33.0250      38.4070       0.0279       1.4730      70.1715       0.0003       0.0874    -999.2500    -999.2500
 1553.7180      60.5727     154.5510       8.4230   -8185.3018      49.9557      58.9105       0.0263       1.4615      70.1715       0.0003       0.0482   -8191.9731   -8186.1014
 1553.5656      61.2063     141.6239       8.4461       2.4054      40.6909      48.7189       0.0253       1.4730      70.1715       0.0004       0.0432       3.3353       2.5168
 1553.4132      60.5557     137.1712       8.4346       2.4054      36.4367      43.3931       0.0275       1.4673      70.1715       0.0004       0.0413       3.3353       2.5168
 1553.2608      62.3189     139.8718       8.4346       1.8005      27.3662      32.1636       0.0273       1.4673      70.1715       0.0004       0.0550       3.3488       2.5100
 1553.1084      67.0050     147.1971       8.3885       0.8980      18.7043      21.9765       0.0270       1.4442      70.1715       0.0004       0.0620       3.3659       2.4972
 1552.9560      69.5357     156.2231       8.4461      -0.0044       8.9443      10.6451       0.0270       1.4730      70.1715       0.0005       0.0853       3.4167       2.4748
 1552.8036      73.5918     159.2679       8.4692      -0.0050       6.5728       8.0047       0.0271       1.4846      70.1715       0.0005       0.1235       3.4628       2.4609
 1552.6512      71.6849     157.8019       8.4576      -0.0063       7.0107       8.6847       0.0272       1.4788      70.1715       0.0006       0.1538       3.4977       2.4576
 1552.4988      68.9502     149.7814       8.4461      -0.0061      11.9984      14.8604       0.0272       1.4730      70.1715       0.0006       0.1438       3.4855       2.4710
 1552.3464      67.5597     139.5833       8.3885      -0.0069      20.6770      25.0746       0.0271       1.4442      70.1715       0.0006       0.1076       3.4388       2.4873
 1552.1940      66.2666     129.4488       8.3193      -0.0081      13.7495      16.9512       0.0271       1.4096      70.1715       0.0007       0.0856       3.4080       2.4993
 1552.0416      66.4462     136.3130       8.3731      -0.0078       6.5065       8.0244       0.0271       1.4365      70.1715       0.0007       0.0880       3.3937       2.5065
 1551.8892      72.4714     154.4110       8.4115      -0.0079       4.5431       5.5994       0.0271       1.4558      70.1715       0.0007       0.1309       3.4454       2.4942
 1551.7368      78.3917     178.9387       8.3885      -0.0053       3.4426       4.2032       0.0271       1.4442      70.1715       0.0008       0.1748       3.5051       2.4835
 1551.5844      78.3517     187.8771       8.4115      -0.0048       3.1281       3.7762       0.0271       1.4558      70.1715       0.0008       0.2218       3.5791       2.4687
 1551.4320      75.8313     198.7522       8.3654      -0.0028       3.4148       4.1102       0.0271       1.4327      70.1715       0.0008       0.2213       3.5752       2.4670
 1551.2796      72.5014     181.0728       8.3308      -0.0026       5.3824       6.3254       0.0271       1.4154      70.1715       0.0009       0.1985       3.5252       2.4614
 1551.1272      66.3095     158.3757       8.2040       0.0048      11.0540      12.6471       0.0271       1.3520      70.1715       0.0009       0.1625       3.4419       2.4752
 1550.9748      64.5892     129.1153       8.2732       0.0113       8.7510       9.9727       0.0271       1.3866      70.1715       0.0009       0.1304       3.4103       2.4869
 1550.8224      64.8380     127.0631       8.2847       0.0116       7.7027       8.7420       0.0271       1.3924      70.1715       0.0010       0.1241       3.4181       2.4877
 1550.6700      66.0485     138.5539       8.2962       0.0073       6.4623       7.2012       0.0271       1.3981      70.1715       0.0010       0.1138       3.4396       2.4828
 1550.5176      67.2270     141.8575       8.2962       0.0043       7.4072       8.1059       0.0271       1.3981      70.1715       0.0010       0.1219       3.4732       2.4776
 1550.3652      67.7023     141.8575       8.2386       0.0062       6.6204       7.2223       0.0271       1.3693      70.1715       0.0011       0.1165       3.4742       2.4707
 1550.2128      69.3008     142.4321       8.2424       0.0043       5.8554       6.4056       0.0271       1.3712      70.1715       0.0011       0.1175       3.4666       2.4422
 1550.0604      70.5622     146.7411       8.3308       0.0006       5.6113       6.1949       0.0271       1.4154      70.1715       0.0011       0.1251       3.3935       2.4195
 1549.9080      72.9128     150.9408       8.2271      -0.0017       4.8508       5.3697       0.0271       1.3635      70.1715       0.0012       0.1310       3.3453       2.4157
 1549.7556      75.2544     154.4130       8.2847      -0.0030       4.5787       5.1089       0.0271       1.3924      70.1715       0.0012       0.1458       3.3271       2.4220
 1549.6032      76.8342     167.6274       8.3769      -0.0035       3.8963       4.3771       0.0271       1.4385      70.1715       0.0013       0.1658       3.3649       2.4262
 1549.4508      79.0512     173.3599       8.3769      -0.0019       3.5861       4.0334       0.0272       1.4385      70.1715       0.0013       0.1967       3.4026       2.4352
 1549.2984      79.1564     178.9366       8.3539       0.0053       3.3755       3.8026       0.0272       1.4269      70.1715       0.0013       0.2144       3.4627       2.4590
 1549.1460      79.7775     182.3839       8.3654       0.0104       3.3703       3.8002       0.0272       1.4327      70.1715       0.0014       0.2301       3.5284       2.4846
 1548.9936      79.4467     194.7373       8.4115       0.0107       3.0818       3.4793       0.0272       1.4558      70.1715       0.0014       0.2428       3.5938       2.5058
 1548.8412      78.7730     204.1773       8.4230       0.0043       3.0676       3.4374       0.0272       1.4615      70.1715       0.0015       0.2581       3.6429       2.5199
 1548.6888      78.4845     208.9172       8.4461      -0.0013       3.2541       3.6201       0.0272       1.4730      70.1715       0.0015       0.2329       3.6789       2.5347
 1548.5364      78.5114     208.3741       8.4346      -0.0031       3.2471       3.6587       0.0272       1.4673      70.1715       0.0015       0.2212       3.7011       2.5497
 1548.3840      77.7967     206.8341       8.3654      -0.0040       3.2764       3.7154       0.0274       1.4327      70.1715       0.0016       0.2095       3.6850       2.5509
 1548.2316      75.7369     199.5082       8.3885      -0.0041       3.1757       3.6158       0.0274       1.4442      70.1715       0.0016       0.2078       3.6034       2.5437
