~VERSION INFORMATION
VERS.           2.0   :CWLS Log ASCII Standard - VERSION 2.0
WRAP.           NO    :One Line per depth step
PROD.  Schlumberger   :LAS Producer
PROG.  DLIS to ASCII 19C2-270                          :LAS Program name and version
CREA.        2014/09/03 09:43                          :LAS Creation date {YYYY/MM/DD hh:mm}
DLIS_CREA.  2014-Sep-03 09:38                          :DLIS Creation date and time {YYYY-MMM-DD hh:mm}
SOURCE.     1-MPE-3-AL_hals-dslt-tdd-hgns-gr_resistividade_repetida.DLIS  :DLIS File Name
FILE-ID.     HALS_SONIC_TLD_MCFL_006PUP                :File Identification Number
#--------------------------------------------------
~WELL INFORMATION
#MNEM.UNIT      DATA             DESCRIPTION
#---- ------ --------------   -----------------------------
STRT .M      1554.9372       :START DEPTH     
STOP .M      1475.9940       :STOP DEPTH     
STEP .M        -0.1524       :STEP     
NULL .          -999.25      :NULL VALUE
COMP .        MARITIMA                                 :COMPANY
WELL .        1-MPE-3-AL                               :WELL
FLD  .        BLOCO BT-SEAL 3                          :FIELD
LOC  .        SAD69, MC=33*                            :LOCATION
CNTY .        ALAGOAS                                  :COUNTY
STAT .        08115020605                              :STATE
CTRY .        BRASIL                                   :COUNTRY
API  .                                                 :API NUMBER
UWI  .                                                 :UNIQUE WELL ID
DATE .        04/09/2003                               :LOG DATE
SRVC .        Schlumberger                             :SERVICE COMPANY
LATI .DEG     -09:28:10.251                            :LATITUDE
LONG .DEG     -35:38:05.710                            :LONGITUDE
GDAT .                                                 :GeoDetic Datum
#-----------------------------------------------------------------------------
~PARAMETER INFORMATION
#MNEM.UNIT    VALUE                      DESCRIPTION
#---- -----   --------------------       ------------------------
RUN  .          2                        :RUN NUMBER
PDAT .        NM                         :Permanent Datum
EPD  .M           0.000000               :Elevation of Permanent Datum above Mean Sea Level
LMF  .          MR                       :Logging Measured From (Name of Logging Elevation Reference)
APD  .M          78.000000               :Elevation of Depth Reference (LMF) above Permanent Datum
#-----------------------------------------------------------------------------
~CURVE INFORMATION
#MNEM.UNIT   API CODE                                  DESCRIPTION
#---- -----  --------                                  -----------------------
DEPT .M                                                :DEPTH (BOREHOLE) {F10.4}
DT   .US/F                                             :Delta-T {F13.4}
GR   .GAPI                                             :Gamma-Ray {F13.4}
HCAL .IN                                               :HRCC Cal. Caliper {F13.4}
HDRA .G/C3                                             :HRDD Density Correction {F13.4}
HLLD .OHMM                                             :HALS Laterolog Deep Resistivity {F13.4}
HLLS .OHMM                                             :HALS Laterolog Shallow Resistivity {F13.4}
HRM  .OHMM                                             :HALS Mud resistivity {F13.4}
HSO  .IN                                               :HALS Sonde Computed Standoff {F13.4}
HTEM .DEGC                                             :HTC Temperature {F13.4}
ITT  .S                                                :Integrated Transit Time {F13.4}
NPHI .V/V                                              :Thermal Neutron Porosity (Ratio Method) {F13.4}
PEFZ .                                                 :HRDD Standard Resolution Formation Photoelectric Factor {F13.4}
RHOZ .G/C3                                             :HRDD Standard Resolution Formation Density {F13.4}
#-----------------------------------------------------------------------------
# 
#     DEPT        DT           GR           HCAL         HDRA         HLLD         HLLS         HRM          HSO          HTEM         ITT          NPHI         PEFZ         RHOZ
#
~A  
# ...
 1500.0732      79.6043     205.2030       8.3885      -0.0026       1.5398       1.8202       0.0278       1.4442      69.7723       0.0142       0.2190       3.6463       2.4528
 1499.9208      78.2032     206.4031       8.4000      -0.0052       2.1048       2.5480       0.0278       1.4500      69.7723       0.0143       0.2154       3.7389       2.4795
 1499.7684      76.4037     214.6464       8.3885      -0.0062       2.3422       2.8826       0.0278       1.4442      69.7723       0.0143       0.1799       3.8123       2.4941
 1499.6160      75.4987     208.7574       8.4346      -0.0060       2.4537       3.0640       0.0278       1.4673      69.7723       0.0143       0.1883       3.8064       2.5090
 1499.4636      75.6184     215.3646       8.4115      -0.0057       2.3668       2.9663       0.0278       1.4558      69.7723       0.0144       0.2013       3.7785       2.5231
 1499.3112      75.0515     212.4357       8.3539      -0.0035       2.3479       2.9622       0.0278       1.4269      69.7723       0.0144       0.2124       3.7750       2.5274
 1499.1588      75.0729     213.4637       8.3885      -0.0053       2.3263       2.9482       0.0278       1.4442      69.7723       0.0145       0.1942       3.7983       2.5221
 1499.0064      75.4489     199.2439       8.3654      -0.0033       2.3316       2.9749       0.0273       1.4327      69.7723       0.0145       0.1769       3.7796       2.5229
 1498.8540      75.0386     204.2711       8.4576      -0.0074       2.2856       2.9480       0.0273       1.4788      69.7723       0.0145       0.1820       3.7594       2.5211
 1498.7016      75.0970     210.5685       8.4115      -0.0074       2.1689       2.8226       0.0273       1.4558      69.7723       0.0146       0.2023       3.7393       2.5217
 1498.5492      74.8744     218.3809       8.4115      -0.0093       2.3478       3.0772       0.0273       1.4558      69.7723       0.0146       0.1987       3.7484       2.5179
 1498.3968      74.9835     221.1100       8.4000      -0.0072       2.4150       3.1646       0.0273       1.4500      69.7723       0.0147       0.1962       3.7122       2.5300
 1498.2444      74.7407     221.6845       8.4230      -0.0055       2.4272       3.1796       0.0273       1.4615      69.7723       0.0147       0.1915       3.6748       2.5397
 1498.0920      75.7738     224.0641       8.4115      -0.0042       2.2428       2.9395       0.0273       1.4558      69.7723       0.0147       0.2118       3.6341       2.5433
 1497.9396      76.8211     224.1634       8.4000      -0.0053       2.0621       2.6801       0.0273       1.4500      69.7723       0.0148       0.2067       3.6408       2.5280
 1497.7872      79.9214     217.1253       8.3654      -0.0046       1.5264       1.9846       0.0273       1.4327      69.7723       0.0148       0.2057       3.6331       2.5103
 1497.6348      80.4800     202.1934       8.3539      -0.0025       1.3138       1.7054       0.0273       1.4269      69.7723       0.0148       0.1837       3.6338       2.4946
 1497.4824      78.5336     179.2561       8.3193      -0.0004       1.2800       1.6581       0.0273       1.4096      69.7723       0.0149       0.1639       3.6420       2.4887
 1497.3300      76.0600     158.4238       8.3423       0.0003       1.5728       1.9988       0.0273       1.4212      69.7723       0.0149       0.1578       3.6515       2.4948
 1497.1776      75.2662     155.1202       8.2962      -0.0030       1.5515       1.9430       0.0273       1.3981      69.7723       0.0150       0.1568       3.6746       2.4874
 1497.0252      75.0697     171.9255       8.2501      -0.0028       1.5701       1.9517       0.0273       1.3751      69.7723       0.0150       0.2049       3.6544       2.4796
 1496.8728      76.6422     197.0118       8.2732       0.0015       1.5536       1.8933       0.0273       1.3866      69.7723       0.0150       0.2267       3.6841       2.4653
 1496.7204      79.8023     209.8992       8.2424       0.0129       1.6272       1.9225       0.0273       1.3712      69.7723       0.0151       0.2381       3.7340       2.4660
 1496.5680      81.4072     198.2648       8.2386       0.0236       1.3881       1.6030       0.0273       1.3693      69.7723       0.0151       0.2084       3.8126       2.4686
 1496.4156      82.6869     184.8181       8.2271       0.0336       1.0439       1.1921       0.0273       1.3635      69.7723       0.0152       0.2158       3.7926       2.4682
 1496.2632      83.8370     173.2013       8.2040       0.0244       0.7372       0.8290       0.0273       1.3520      69.7723       0.0152       0.2257       3.6156       2.4291
 1496.1108      81.8696     160.3911       8.1810       0.0099       0.5763       0.6407       0.0273       1.3405      69.7723       0.0152       0.2395       3.3541       2.3802
 1495.9584      83.1788     145.5967       8.1886      -0.0023       0.4535       0.5064       0.0273       1.3443      69.7723       0.0153       0.2300       3.0834       2.3356
 1495.8060      82.2138     127.6645       8.2732      -0.0021       0.4322       0.4767       0.0273       1.3866      69.7723       0.0153       0.2086       2.9014       2.3286
 1495.6536      81.3018     119.3604       8.2501      -0.0024       0.4085       0.4507       0.0274       1.3751      69.7723       0.0154       0.1979       2.8163       2.3238
 1495.5012      82.7319     112.6096       8.2271      -0.0070       0.3946       0.4305       0.0274       1.3635      69.5727       0.0154       0.2011       2.8029       2.3178
 1495.3488      82.9125     114.9515       8.2501      -0.0096       0.3743       0.4076       0.0274       1.3751      69.7723       0.0154       0.2158       2.8329       2.3054
 1495.1964      83.7996     118.6860       8.3193      -0.0095       0.3622       0.3877       0.0275       1.4096      69.7723       0.0155       0.2228       2.8661       2.2965
 1495.0440      84.6225     125.1955       8.3193      -0.0102       0.3778       0.4006       0.0275       1.4096      69.6725       0.0155       0.2107       2.9134       2.3024
 1494.8916      86.1533     126.2760       8.3193      -0.0142       0.4117       0.4428       0.0275       1.4096      69.7723       0.0156       0.1992       3.0077       2.3160
 1494.7392      84.0320     127.7467       8.3270      -0.0151       0.4690       0.4887       0.0276       1.4135      69.5727       0.0156       0.1832       3.1202       2.3405
 1494.5868      79.7685     128.9935       8.3769      -0.0119       0.6497       0.6603       0.0276       1.4385      69.6725       0.0157       0.1571       3.1799       2.3838
 1494.4344      72.2429     123.8688       8.3078       0.0041       0.9008       0.8955       0.0276       1.4039      69.5727       0.0157       0.1306       3.1923       2.4510
 1494.2820      71.0669     122.6854       8.2155       0.0089       0.7550       0.7474       0.0275       1.3578      69.6725       0.0157       0.1268       3.1206       2.4729
 1494.1296      72.9981     122.6570       8.1464       0.0061       0.4961       0.5063       0.0276       1.3232      69.5727       0.0158       0.1677       3.0252       2.4329
 1493.9772      74.2560     127.5192       8.2501      -0.0048       0.4041       0.4120       0.0276       1.3751      69.5727       0.0158       0.2012       2.8917       2.3645
 1493.8248      82.7237     132.4028       8.2732      -0.0074       0.4480       0.4507       0.0276       1.3866      69.5727       0.0158       0.2114       2.8275       2.3309
 1493.6724      81.4981     128.6941       8.2501      -0.0056       0.4586       0.4609       0.0276       1.3751      69.5727       0.0159       0.1887       2.8291       2.3303
 1493.5200      81.3224     126.8033       8.2040      -0.0036       0.4512       0.4515       0.0276       1.3520      69.5727       0.0159       0.1856       2.8362       2.3383
 1493.3676      81.7254     120.6129       8.2501      -0.0029       0.4460       0.4475       0.0276       1.3751      69.5727       0.0160       0.1825       2.8138       2.3447
