~VERSION INFORMATION
VERS.           2.0   :CWLS Log ASCII Standard - VERSION 2.0
WRAP.           NO    :One Line per depth step
PROD.  Schlumberger   :LAS Producer
PROG.  DLIS to ASCII 19C2-270                          :LAS Program name and version
CREA.        2014/09/03 09:43                          :LAS Creation date {YYYY/MM/DD hh:mm}
DLIS_CREA.  2014-Sep-03 09:38                          :DLIS Creation date and time {YYYY-MMM-DD hh:mm}
SOURCE.     1-MPE-3-AL_hals-dslt-tdd-hgns-gr_resistividade_repetida.DLIS  :DLIS File Name
FILE-ID.     HALS_SONIC_TLD_MCFL_006PUP                :File Identification Number
#--------------------------------------------------
~WELL INFORMATION
#MNEM.UNIT      DATA             DESCRIPTION
#---- ------ --------------   -----------------------------
STRT .M      1554.9372       :START DEPTH     
STOP .M      1475.9940       :STOP DEPTH     
STEP .M        -0.1524       :STEP     
NULL .          -999.25      :NULL VALUE
COMP .        MARITIMA                                 :COMPANY
WELL .        1-MPE-3-AL                               :WELL
FLD  .        BLOCO BT-SEAL 3                          :FIELD
LOC  .        SAD69, MC=33*                            :LOCATION
CNTY .        ALAGOAS                                  :COUNTY
STAT .        08115020605                              :STATE
CTRY .        BRASIL                                   :COUNTRY
API  .                                                 :API NUMBER
UWI  .                                                 :UNIQUE WELL ID
DATE .        04/09/2003                               :LOG DATE
SRVC .        Schlumberger                             :SERVICE COMPANY
LATI .DEG     -09:28:10.251                            :LATITUDE
LONG .DEG     -35:38:05.710                            :LONGITUDE
GDAT .                                                 :GeoDetic Datum
#-----------------------------------------------------------------------------
~PARAMETER INFORMATION
#MNEM.UNIT    VALUE                      DESCRIPTION
#---- -----   --------------------       ------------------------
RUN  .          2                        :RUN NUMBER
PDAT .        NM                         :Permanent Datum
EPD  .M           0.000000               :Elevation of Permanent Datum above Mean Sea Level
LMF  .          MR                       :Logging Measured From (Name of Logging Elevation Reference)
APD  .M          78.000000               :Elevation of Depth Reference (LMF) above Permanent Datum
#-----------------------------------------------------------------------------
~CURVE INFORMATION
#MNEM.UNIT   API CODE                                  DESCRIPTION
#---- -----  --------                                  -----------------------
DEPT .M                                                :DEPTH (BOREHOLE) {F10.4}
DT   .US/F                                             :Delta-T {F13.4}
GR   .GAPI                                             :Gamma-Ray {F13.4}
HCAL .IN                                               :HRCC Cal. Caliper {F13.4}
HDRA .G/C3                                             :HRDD Density Correction {F13.4}
HLLD .OHMM                                             :HALS Laterolog Deep Resistivity {F13.4}
HLLS .OHMM                                             :HALS Laterolog Shallow Resistivity {F13.4}
HRM  .OHMM                                             :HALS Mud resistivity {F13.4}
HSO  .IN                                               :HALS Sonde Computed Standoff {F13.4}
HTEM .DEGC                                             :HTC Temperature {F13.4}
ITT  .S                                                :Integrated Transit Time {F13.4}
NPHI .V/V                                              :Thermal Neutron Porosity (Ratio Method) {F13.4}
PEFZ .                                                 :HRDD Standard Resolution Formation Photoelectric Factor {F13.4}
RHOZ .G/C3                                             :HRDD Standard Resolution Formation Density {F13.4}
#-----------------------------------------------------------------------------
# 
#     DEPT        DT           GR           HCAL         HDRA         HLLD         HLLS         HRM          HSO          HTEM         ITT          NPHI         PEFZ         RHOZ
#
~A  
# ...
 1527.5052      79.1219     222.7354       8.3769      -0.0021       1.9441       2.4218       0.0275       1.4385      69.9719       0.0070       0.2302       3.7126       2.5546
 1527.3528      82.5583     226.9312       8.3885      -0.0078       2.0942       2.6113       0.0275       1.4442      69.9719       0.0070       0.2342       3.7014       2.5518
 1527.2004      81.1634     226.4975       8.3885      -0.0070       2.2452       2.7959       0.0275       1.4442      69.9719       0.0071       0.2089       3.7172       2.5469
 1527.0480      80.8108     231.0938       8.4461      -0.0071       2.0445       2.5302       0.0275       1.4730      69.9719       0.0071       0.2013       3.7636       2.5450
 1526.8956      81.8170     236.0744       8.4461      -0.0092       1.9650       2.4360       0.0275       1.4730      69.9719       0.0071       0.2168       3.8191       2.5390
 1526.7432      82.4375     239.1355       8.4230      -0.0095       1.7464       2.1553       0.0275       1.4615      69.9719       0.0072       0.2336       3.8174       2.5416
 1526.5908      85.4709     235.9952       8.4692      -0.0094       1.7530       2.1578       0.0275       1.4846      69.9719       0.0072       0.2629       3.7938       2.5442
 1526.4384      85.4799     234.1443       8.4346      -0.0076       1.7434       2.1431       0.0275       1.4673      69.9719       0.0073       0.2584       3.7527       2.5515
 1526.2860      82.8029     229.6503       8.4346      -0.0050       1.9811       2.4461       0.0275       1.4673      69.9719       0.0073       0.2424       3.7200       2.5573
 1526.1336      80.3430     230.4924       8.4346      -0.0015       2.0985       2.5703       0.0275       1.4673      69.9719       0.0074       0.2064       3.6609       2.5665
 1525.9812      79.4310     224.6034       8.3885      -0.0005       2.1744       2.6354       0.0275       1.4442      69.9719       0.0074       0.1879       3.6453       2.5638
 1525.8288      79.4847     223.0947       8.5268      -0.0022       1.9929       2.4036       0.0275       1.5134      69.9719       0.0074       0.1884       3.6767       2.5500
 1525.6764      80.1781     227.9327       8.5268      -0.0060       1.9220       2.3017       0.0275       1.5134      69.9719       0.0075       0.2160       3.7624       2.5262
 1525.5240      81.8470     238.6298       8.5037      -0.0092       1.8179       2.1678       0.0275       1.5019      69.9719       0.0075       0.2307       3.8092       2.5128
 1525.3716      83.5637     242.7653       8.4576      -0.0101       1.8044       2.1415       0.0275       1.4788      69.9719       0.0076       0.2415       3.8093       2.5120
 1525.2192      84.1105     249.5287       8.4576      -0.0099       1.8357       2.1809       0.0275       1.4788      69.9719       0.0076       0.2446       3.7909       2.5153
 1525.0668      84.8052     254.4878       8.4346      -0.0081       1.8531       2.1524       0.0275       1.4673      69.9719       0.0076       0.2560       3.7886       2.5164
 1524.9144      85.9150     256.3550       8.4807      -0.0070       1.7260       1.9592       0.0275       1.4903      69.9719       0.0077       0.2711       3.8036       2.5082
 1524.7620      85.4004     228.9792       8.4692      -0.0051       0.9861       1.1210       0.0275       1.4846      69.9719       0.0077       0.2616       3.7664       2.4954
 1524.6096      83.9231     185.4578       8.4807      -0.0045       0.6637       0.7652       0.0275       1.4903      69.9719       0.0078       0.2222       3.6933       2.4583
 1524.4572      79.6042     151.4164       8.4115      -0.0012       0.5666       0.6554       0.0275       1.4558      69.9719       0.0078       0.1734       3.5853       2.4203
 1524.3048      76.0495     136.3093       8.3885      -0.0023       0.8757       1.0104       0.0275       1.4442      69.9719       0.0078       0.1322       3.4914       2.4041
 1524.1524      71.5921     130.2766       8.2962      -0.0013       1.4892       1.7161       0.0275       1.3981      69.9719       0.0079       0.1141       3.3864       2.4362
 1524.0000      66.6693     123.8131       8.2194      -0.0024       2.7852       3.1783       0.0275       1.3597      69.9719       0.0079       0.1004       3.3075       2.4871
 1523.8476      63.2905     122.5880       8.2155      -0.0008       3.1897       3.7057       0.0275       1.3578      69.9719       0.0079       0.0813       3.2838       2.5220
 1523.6952      63.4137     118.7098       8.2271      -0.0014       3.1331       3.6481       0.0275       1.3635      69.9719       0.0080       0.0936       3.3018       2.5291
 1523.5428      66.1961     116.9862       8.2732      -0.0025       1.6392       1.9172       0.0275       1.3866      69.9719       0.0080       0.1112       3.3233       2.5089
 1523.3904      70.1535     117.7639       8.2501      -0.0033       0.9339       1.0892       0.0275       1.3751      69.9719       0.0080       0.1545       3.2736       2.4694
 1523.2380      74.4412     135.4310       8.2617      -0.0030       0.7793       0.8868       0.0275       1.3808      69.9719       0.0081       0.1976       3.1991       2.4225
 1523.0856      80.6232     155.6835       8.2386      -0.0019       0.8487       0.9593       0.0275       1.3693      69.9719       0.0081       0.2465       3.1483       2.3879
 1522.9332      84.8636     171.3562       8.2155      -0.0008       0.9222       1.0459       0.0275       1.3578      69.9719       0.0082       0.2701       3.2102       2.3710
 1522.7808      85.5484     174.3725       8.1925      -0.0041       0.8795       1.0259       0.0275       1.3462      69.9719       0.0082       0.2577       3.3655       2.3605
 1522.6284      84.7194     185.8228       8.2732      -0.0082       1.0829       1.2828       0.0275       1.3866      69.9719       0.0082       0.2406       3.5411       2.3693
 1522.4760      81.5969     207.2244       8.4346      -0.0111       1.5447       1.8329       0.0274       1.4673      69.9719       0.0083       0.2150       3.6286       2.4046
 1522.3236      78.5931     221.3176       8.4961      -0.0102       2.0655       2.4622       0.0274       1.4980      69.9719       0.0083       0.2101       3.6049       2.4590
 1522.1712      75.3126     218.7727       8.5498      -0.0088       2.0839       2.4939       0.0274       1.5249      69.9719       0.0084       0.1899       3.5409       2.5047
 1522.0188      75.5698     211.5490       8.4807      -0.0086       2.2495       2.7010       0.0274       1.4903      69.9719       0.0084       0.1868       3.5421       2.5312
 1521.8664      75.2578     215.5538       8.5114      -0.0099       2.4373       2.9381       0.0274       1.5057      69.9719       0.0084       0.1841       3.6474       2.5379
 1521.7140      75.3044     219.7192       8.5268      -0.0086       2.5549       3.0906       0.0274       1.5134      69.9719       0.0085       0.1971       3.7481       2.5417
 1521.5616      75.6805     217.9109       8.5268      -0.0055       2.3214       2.8556       0.0274       1.5134      69.9719       0.0085       0.2057       3.7564       2.5406
 1521.4092      75.6206     210.9772       8.4576      -0.0024       1.9537       2.4034       0.0274       1.4788      69.9719       0.0086       0.2071       3.6819       2.5302
 1521.2568      76.2326     208.5354       8.4461      -0.0027       1.5727       1.9405       0.0275       1.4730      69.9719       0.0086       0.2051       3.5845       2.5001
 1521.1044      78.0927     204.6403       8.4730      -0.0059       1.1565       1.4398       0.0275       1.4865      69.9719       0.0086       0.2019       3.5265       2.4528
 1520.9520      80.0572     193.3323       8.4576      -0.0086       0.8090       1.0146       0.0275       1.4788      69.9719       0.0087       0.2231       3.4970       2.4140
 1520.7996      77.1890     177.8197       8.4346      -0.0073       0.8542       1.0750       0.0275       1.4673      69.9719       0.0087       0.2102       3.4749       2.4189
