~VERSION INFORMATION
VERS.           2.0   :CWLS Log ASCII Standard - VERSION 2.0
WRAP.           NO    :One Line per depth step
PROD.  Schlumberger   :LAS Producer
PROG.  DLIS to ASCII 19C2-270                          :LAS Program name and version
CREA.        2014/09/03 09:43                          :LAS Creation date {YYYY/MM/DD hh:mm}
DLIS_CREA.  2014-Sep-03 09:38                          :DLIS Creation date and time {YYYY-MMM-DD hh:mm}
SOURCE.     1-MPE-3-AL_hals-dslt-tdd-hgns-gr_resistividade_repetida.DLIS  :DLIS File Name
FILE-ID.     HALS_SONIC_TLD_MCFL_006PUP                :File Identification Number
#--------------------------------------------------
~WELL INFORMATION
#MNEM.UNIT      DATA             DESCRIPTION
#---- ------ --------------   -----------------------------
STRT .M      1554.9372       :START DEPTH     
STOP .M      1475.9940       :STOP DEPTH     
STEP .M        -0.1524       :STEP     
NULL .          -999.25      :NULL VALUE
COMP .        MARITIMA                                 :COMPANY
WELL .        1-MPE-3-AL                               :WELL
FLD  .        BLOCO BT-SEAL 3                          :FIELD
LOC  .        SAD69, MC=33*                            :LOCATION
CNTY .        ALAGOAS                                  :COUNTY
STAT .        08115020605                              :STATE
CTRY .        BRASIL                                   :COUNTRY
API  .                                                 :API NUMBER
UWI  .                                                 :UNIQUE WELL ID
DATE .        04/09/2003                               :LOG DATE
SRVC .        Schlumberger                             :SERVICE COMPANY
LATI .DEG     -09:28:10.251                            :LATITUDE
LONG .DEG     -35:38:05.710                            :LONGITUDE
GDAT .                                                 :GeoDetic Datum
#-----------------------------------------------------------------------------
~PARAMETER INFORMATION
#MNEM.UNIT    VALUE                      DESCRIPTION
#---- -----   --------------------       ------------------------
RUN  .          2                        :RUN NUMBER
PDAT .        NM                         :Permanent Datum
EPD  .M           0.000000               :Elevation of Permanent Datum above Mean Sea Level
LMF  .          MR                       :Logging Measured From (Name of Logging Elevation Reference)
APD  .M          78.000000               :Elevation of Depth Reference (LMF) above Permanent Datum
#-----------------------------------------------------------------------------
~CURVE INFORMATION
#MNEM.UNIT   API CODE                                  DESCRIPTION
#---- -----  --------                                  -----------------------
DEPT .M                                                :DEPTH (BOREHOLE) {F10.4}
DT   .US/F                                             :Delta-T {F13.4}
GR   .GAPI                                             :Gamma-Ray {F13.4}
HCAL .IN                                               :HRCC Cal. Caliper {F13.4}
HDRA .G/C3                                             :HRDD Density Correction {F13.4}
HLLD .OHMM                                             :HALS Laterolog Deep Resistivity {F13.4}
HLLS .OHMM                                             :HALS Laterolog Shallow Resistivity {F13.4}
HRM  .OHMM                                             :HALS Mud resistivity {F13.4}
HSO  .IN                                               :HALS Sonde Computed Standoff {F13.4}
HTEM .DEGC                                             :HTC Temperature {F13.4}
ITT  .S                                                :Integrated Transit Time {F13.4}
NPHI .V/V                                              :Thermal Neutron Porosity (Ratio Method) {F13.4}
PEFZ .                                                 :HRDD Standard Resolution Formation Photoelectric Factor {F13.4}
RHOZ .G/C3                                             :HRDD Standard Resolution Formation Density {F13.4}
#-----------------------------------------------------------------------------
# 
#     DEPT        DT           GR           HCAL         HDRA         HLLD         HLLS         HRM          HSO          HTEM         ITT          NPHI         PEFZ         RHOZ
#
~A  
# ...
 1493.2152      82.6957     124.6373       8.2501      -0.0046       0.4486       0.4447       0.0276       1.3751      69.5727       0.0160       0.1868       2.7719       2.3469
 1493.0628      84.6974     129.2875       8.2271      -0.0040       0.4421       0.4405       0.0276       1.3635      69.5727       0.0160       0.1768       2.7644       2.3411
 1492.9104      82.0527     127.0035       8.2271      -0.0052       0.4397       0.4353       0.0276       1.3635      69.5727       0.0161       0.1799       2.7636       2.3360
 1492.7580      82.1167     122.9791       8.2501      -0.0061       0.4295       0.4181       0.0276       1.3751      69.5727       0.0161       0.1893       2.7489       2.3303
 1492.6056      81.9678     118.3289       8.2271      -0.0094       0.4171       0.4116       0.0276       1.3635      69.5727       0.0162       0.1973       2.7108       2.3306
 1492.4532      82.2140     116.0307       8.2501      -0.0092       0.4055       0.3965       0.0276       1.3751      69.5727       0.0162       0.1981       2.7000       2.3302
 1492.3008      82.7106     118.9879       8.2617      -0.0080       0.4058       0.3962       0.0277       1.3808      69.5727       0.0163       0.1881       2.7559       2.3254
 1492.1484      82.8426     117.0005       8.2386      -0.0070       0.4018       0.3851       0.0277       1.3693      69.5727       0.0163       0.1995       2.8369       2.3182
 1491.9960      83.1248     120.3129       8.2040      -0.0058       0.3941       0.3811       0.0276       1.3520      69.5727       0.0163       0.1997       2.9044       2.3131
 1491.8436      83.3714     119.2256       8.2271      -0.0039       0.3890       0.3752       0.0277       1.3635      69.5727       0.0164       0.2033       2.9021       2.3176
 1491.6912      83.6028     116.4965       8.2732      -0.0035       0.3927       0.3809       0.0277       1.3866      69.5727       0.0164       0.1965       2.8652       2.3209
 1491.5388      83.4355     118.7859       8.2847      -0.0053       0.3878       0.3735       0.0277       1.3924      69.5727       0.0165       0.2018       2.8112       2.3185
 1491.3864      83.7214     119.6915       8.2617      -0.0080       0.3812       0.3653       0.0277       1.3808      69.5727       0.0165       0.2106       2.7996       2.3071
 1491.2340      84.1148     124.5751       8.2617      -0.0094       0.3729       0.3600       0.0277       1.3808      69.5727       0.0165       0.2136       2.8104       2.2982
 1491.0816      84.3784     120.4096       8.2732      -0.0097       0.3659       0.3477       0.0277       1.3866      69.5727       0.0166       0.2111       2.8660       2.2878
 1490.9292      84.9984     118.0677       8.2809      -0.0091       0.3703       0.3574       0.0277       1.3904      69.5727       0.0166       0.1966       2.8888       2.2857
 1490.7768      85.7936     113.0626       8.2732      -0.0093       0.3689       0.3610       0.0277       1.3866      69.5727       0.0167       0.1991       2.8887       2.2828
 1490.6244      85.2638     110.3335       8.2847      -0.0089       0.3677       0.3618       0.0277       1.3924      69.5727       0.0167       0.2042       2.8403       2.2905
 1490.4720      83.3370     106.0245       8.2962      -0.0094       0.3919       0.3888       0.0278       1.3981      69.5727       0.0168       0.2198       2.8092       2.3034
 1490.3196      80.7667     109.5932       8.3193      -0.0092       0.4807       0.4740       0.0278       1.4096      69.5727       0.0168       0.2015       2.8036       2.3259
 1490.1672      79.2310     114.3539       8.2501      -0.0083       0.5402       0.5368       0.0278       1.3751      69.5727       0.0168       0.1999       2.8146       2.3468
 1490.0148      78.8556     116.3648       8.2386      -0.0076       0.4520       0.4536       0.0278       1.3693      69.5727       0.0169       0.1950       2.8447       2.3470
 1489.8624      80.7111     117.5138       8.2962      -0.0070       0.3857       0.3940       0.0278       1.3981      69.5727       0.0169       0.2110       2.8655       2.3289
 1489.7100      84.4926     118.4986       8.3193      -0.0077       0.3494       0.3586       0.0278       1.4096      69.5727       0.0170       0.2009       2.8667       2.3054
 1489.5576      84.9377     121.2047       8.3539      -0.0078       0.3518       0.3537       0.0278       1.4269      69.5727       0.0170       0.1931       2.8409       2.3010
 1489.4052      83.4480     123.9801       8.3577      -0.0074       0.4386       0.4402       0.0278       1.4289      69.5727       0.0170       0.1816       2.8331       2.3137
 1489.2528      82.8090     129.1509       8.3539      -0.0053       0.4865       0.4937       0.0278       1.4269      69.5727       0.0171       0.1893       2.8307       2.3417
 1489.1004      81.1901     139.2283       8.3423      -0.0050       0.5591       0.5680       0.0278       1.4212      69.5727       0.0171       0.1886       2.8471       2.3611
 1488.9480      80.0056     141.3103       8.3308      -0.0056       0.5000       0.5145       0.0279       1.4154      69.5727       0.0172       0.2003       2.8618       2.3699
 1488.7956      79.5117     134.4013       8.3423      -0.0065       0.5247       0.5417       0.0279       1.4212      69.5727       0.0172       0.1778       2.8705       2.3679
 1488.6432      78.5372     121.3305       8.2732      -0.0054       0.4774       0.4963       0.0279       1.3866      69.5727       0.0172       0.1681       2.8492       2.3679
 1488.4908      78.7354     117.3349       8.3885      -0.0055       0.5001       0.5120       0.0279       1.4442      69.5727       0.0173       0.1492       2.8105       2.3631
 1488.3384      79.2168     120.3417       8.3885      -0.0057       0.5088       0.5225       0.0279       1.4442      69.5727       0.0173       0.1661       2.7900       2.3531
 1488.1860      80.8452     130.5870       8.3577      -0.0071       0.4983       0.5132       0.0279       1.4289      69.5727       0.0174       0.1814       2.7635       2.3460
 1488.0336      81.3525     130.7307       8.3654      -0.0070       0.4615       0.4717       0.0279       1.4327      69.5727       0.0174       0.2062       2.7316       2.3436
 1487.8812      81.2409     129.7493       8.3885      -0.0084       0.4217       0.4360       0.0280       1.4442      69.5727       0.0174       0.2061       2.6904       2.3425
 1487.7288      80.8970     124.9378       8.3885      -0.0084       0.4256       0.4358       0.0280       1.4442      69.5727       0.0175       0.1900       2.6705       2.3425
 1487.5764      79.8337     126.2408       8.4115      -0.0085       0.3985       0.4085       0.0280       1.4558      69.5727       0.0175       0.1691       2.6850       2.3462
 1487.4240      78.2498     126.5281       8.3731      -0.0083       0.4103       0.4106       0.0280       1.4365      69.5727       0.0176       0.1727       2.7565       2.3477
 1487.2716      78.1868     129.1379       8.3654      -0.0083       0.4341       0.4430       0.0280       1.4327      69.5727       0.0176       0.1929       2.8471       2.3445
 1487.1192      78.6084     127.7112       8.3193      -0.0067       0.5054       0.5151       0.0280       1.4096      69.5727       0.0176       0.2024       2.9011       2.3418
 1486.9668      79.0023     123.9767       8.2617      -0.0045       0.4937       0.4946       0.0280       1.3808      69.5727       0.0177       0.2111       2.9022       2.3399
 1486.8144      80.2854     126.9268       8.2617      -0.0047       0.4809       0.4995       0.0280       1.3808      69.5727       0.0177       0.2023       2.9222       2.3323
 1486.6620      80.4427     130.3540       8.2847      -0.0063       0.5094       0.5275       0.0280       1.3924      69.5727       0.0178       0.1974       2.9869       2.3297
 1486.5096      79.3019     133.0209       8.2732      -0.0063       0.6459       0.6613       0.0280       1.3866      69.5727       0.0178       0.1890       3.0522       2.3438
