~VERSION INFORMATION
VERS.           2.0   :CWLS Log ASCII Standard - VERSION 2.0
WRAP.           NO    :One Line per depth step
PROD.  Schlumberger   :LAS Producer
PROG.  DLIS to ASCII 19C2-270                          :LAS Program name and version
CREA.        2014/09/03 09:43                          :LAS Creation date {YYYY/MM/DD hh:mm}
DLIS_CREA.  2014-Sep-03 09:38                          :DLIS Creation date and time {YYYY-MMM-DD hh:mm}
SOURCE.     1-MPE-3-AL_hals-dslt-tdd-hgns-gr_resistividade_repetida.DLIS  :DLIS File Name
FILE-ID.     HALS_SONIC_TLD_MCFL_006PUP                :File Identification Number
#--------------------------------------------------
~WELL INFORMATION
#MNEM.UNIT      DATA             DESCRIPTION
#---- ------ --------------   -----------------------------
STRT .M      1554.9372       :START DEPTH     
STOP .M      1475.9940       :STOP DEPTH     
STEP .M        -0.1524       :STEP     
NULL .          -999.25      :NULL VALUE
COMP .        MARITIMA                                 :COMPANY
WELL .        1-MPE-3-AL                               :WELL
FLD  .        BLOCO BT-SEAL 3                          :FIELD
LOC  .        SAD69, MC=33*                            :LOCATION
CNTY .        ALAGOAS                                  :COUNTY
STAT .        08115020605                              :STATE
CTRY .        BRASIL                                   :COUNTRY
API  .                                                 :API NUMBER
UWI  .                                                 :UNIQUE WELL ID
DATE .        04/09/2003                               :LOG DATE
SRVC .        Schlumberger                             :SERVICE COMPANY
LATI .DEG     -09:28:10.251                            :LATITUDE
LONG .DEG     -35:38:05.710                            :LONGITUDE
GDAT .                                                 :GeoDetic Datum
#-----------------------------------------------------------------------------
~PARAMETER INFORMATION
#MNEM.UNIT    VALUE                      DESCRIPTION
#---- -----   --------------------       ------------------------
RUN  .          2                        :RUN NUMBER
PDAT .        NM                         :Permanent Datum
EPD  .M           0.000000               :Elevation of Permanent Datum above Mean Sea Level
LMF  .          MR                       :Logging Measured From (Name of Logging Elevation Reference)
APD  .M          78.000000               :Elevation of Depth Reference (LMF) above Permanent Datum
#-----------------------------------------------------------------------------
~CURVE INFORMATION
#MNEM.UNIT   API CODE                                  DESCRIPTION
#---- -----  --------                                  -----------------------
DEPT .M                                                :DEPTH (BOREHOLE) {F10.4}
DT   .US/F                                             :Delta-T {F13.4}
GR   .GAPI                                             :Gamma-Ray {F13.4}
HCAL .IN                                               :HRCC Cal. Caliper {F13.4}
HDRA .G/C3                                             :HRDD Density Correction {F13.4}
HLLD .OHMM                                             :HALS Laterolog Deep Resistivity {F13.4}
HLLS .OHMM                                             :HALS Laterolog Shallow Resistivity {F13.4}
HRM  .OHMM                                             :HALS Mud resistivity {F13.4}
HSO  .IN                                               :HALS Sonde Computed Standoff {F13.4}
HTEM .DEGC                                             :HTC Temperature {F13.4}
ITT  .S                                                :Integrated Transit Time {F13.4}
NPHI .V/V                                              :Thermal Neutron Porosity (Ratio Method) {F13.4}
PEFZ .                                                 :HRDD Standard Resolution Formation Photoelectric Factor {F13.4}
RHOZ .G/C3                                             :HRDD Standard Resolution Formation Density {F13.4}
#-----------------------------------------------------------------------------
# 
#     DEPT        DT           GR           HCAL         HDRA         HLLD         HLLS         HRM          HSO          HTEM         ITT          NPHI         PEFZ         RHOZ
#
~A  
# ...
 1479.4992      71.5842     135.1348       8.6305      -0.0086       0.8155       0.8803       0.0279       1.5653      69.5727       0.0196       0.1233       3.0267       2.4019
 1479.3468      69.7859     137.8639       8.5729      -0.0061       0.9268       0.9934       0.0279       1.5365      69.5727       0.0197       0.1313       2.9129       2.4466
 1479.1944      67.3804     140.6183       8.4461      -0.0024       0.8611       0.9203       0.0279       1.4730      69.5727       0.0197       0.1693       2.8621       2.4701
 1479.0420      68.5325     140.0438       8.3193       0.0002       0.7155       0.7568       0.0280       1.4096      69.5727       0.0197       0.1949       2.8705       2.4482
 1478.8896      71.4733     136.7402       8.2386       0.0014       0.6337       0.6801       0.0282       1.3693      69.5727       0.0198       0.2173       2.8953       2.4022
 1478.7372      75.0638     137.3564       8.1810       0.0005       0.5920       0.6161       0.0282       1.3405      69.5727       0.0198       0.2111       2.9397       2.3636
 1478.5848      77.2358     141.8091       8.1425      -0.0016       0.5476       0.5688       0.0282       1.3213      69.5727       0.0199       0.2218       2.9823       2.3474
 1478.4324      78.5336     140.9889       8.2040      -0.0045       0.5177       0.5468       0.0281       1.3520      69.5727       0.0199       0.2141       3.0197       2.3426
 1478.2800      78.5357     135.3455       8.1810      -0.0074       0.5322       0.5476       0.0281       1.3405      69.5727       0.0199       0.2184       3.0438       2.3367
 1478.1276      77.5615     134.3401       8.1579      -0.0075       0.6045       0.6164       0.0281       1.3290      69.5727       0.0200       0.2115       3.0385       2.3380
 1477.9752      77.5965     129.7004       8.1694      -0.0075       0.7354       0.7360       0.0281       1.3347      69.5727       0.0200       0.2079       3.0385       2.3380
 1477.8228      79.7311     130.9683       8.1464      -0.0075       0.6258       0.6393       0.0281       1.3232      69.5727       0.0201       0.2155       3.0385       2.3380
 1477.6704      80.7877     129.8192       8.1656      -0.0075       0.4983       0.5077       0.0281       1.3328      69.5727       0.0201       0.2255       3.0385       2.3380
 1477.5180      80.8805     131.0644       8.1579      -0.0075       0.4690       0.4805       0.0281       1.3290      69.5727       0.0201       0.2151       3.0385       2.3380
 1477.3656      77.7557     124.9129       8.1810      -0.0075       0.6585       0.6770       0.0281       1.3405      69.5727       0.0202       0.1786       3.0385       2.3380
 1477.2132      73.8781     119.6913       8.2040      -0.0075       0.8582       0.8658       0.0281       1.3520      69.5727       0.0202       0.1536       3.0385       2.3380
 1477.0608      71.9042     116.1497       8.1810      -0.0075       0.8671       0.8909       0.0281       1.3405      69.5727       0.0202       0.1520       3.0385       2.3380
 1476.9084      71.9042     119.4533       8.2271      -0.0075       0.7645       0.7976       0.0281       1.3635      69.5727       0.0202       0.1631       3.0385       2.3380
 1476.7560      71.9042     119.6477       8.1925      -0.0075       0.7799       0.8366       0.0281       1.3462      69.5727       0.0202       0.1505       3.0385       2.3380
 1476.6036      71.9042     117.5622       8.2040      -0.0075       0.8678       0.9152       0.0281       1.3520      69.5727       0.0202       0.1460       3.0385       2.3380
 1476.4512      71.9042     115.1204       8.2271      -0.0075       0.8550       0.9088       0.0281       1.3635      69.5727       0.0202       0.1381       3.0385       2.3380
 1476.2988      71.9042     116.4814       8.2271      -0.0075       0.8283       0.8808       0.0281       1.3635      69.5727       0.0202       0.1465       3.0385       2.3380
 1476.1464      71.9042     116.6997       8.1694      -0.0075       0.8374       0.9013       0.0280       1.3347      69.5727       0.0202       0.1721       3.0385       2.3380
 1475.9940      71.9042     117.8487       8.1118      -0.0075       0.8374       0.9013       0.0280       1.3059      69.5727       0.0202       0.2009       3.0385       2.3380
