~VERSION INFORMATION
VERS.           2.0   :CWLS Log ASCII Standard - VERSION 2.0
WRAP.           NO    :One Line per depth step
PROD.  Schlumberger   :LAS Producer
PROG.  DLIS to ASCII 19C2-270                          :LAS Program name and version
CREA.        2014/09/03 09:43                          :LAS Creation date {YYYY/MM/DD hh:mm}
DLIS_CREA.  2014-Sep-03 09:38                          :DLIS Creation date and time {YYYY-MMM-DD hh:mm}
SOURCE.     1-MPE-3-AL_hals-dslt-tdd-hgns-gr_resistividade_repetida.DLIS  :DLIS File Name
FILE-ID.     HALS_SONIC_TLD_MCFL_006PUP                :File Identification Number
#--------------------------------------------------
~WELL INFORMATION
#MNEM.UNIT      DATA             DESCRIPTION
#---- ------ --------------   -----------------------------
STRT .M      1554.9372       :START DEPTH     
STOP .M      1475.9940       :STOP DEPTH     
STEP .M        -0.1524       :STEP     
NULL .          -999.25      :NULL VALUE
COMP .        MARITIMA                                 :COMPANY
WELL .        1-MPE-3-AL                               :WELL
FLD  .        BLOCO BT-SEAL 3                          :FIELD
LOC  .        SAD69, MC=33*                            :LOCATION
CNTY .        ALAGOAS                                  :COUNTY
STAT .        08115020605                              :STATE
CTRY .        BRASIL                                   :COUNTRY
API  .                                                 :API NUMBER
UWI  .                                                 :UNIQUE WELL ID
DATE .        04/09/2003                               :LOG DATE
SRVC .        Schlumberger                             :SERVICE COMPANY
LATI .DEG     -09:28:10.251                            :LATITUDE
LONG .DEG     -35:38:05.710                            :LONGITUDE
GDAT .                                                 :GeoDetic Datum
#-----------------------------------------------------------------------------
~PARAMETER INFORMATION
#MNEM.UNIT    VALUE                      DESCRIPTION
#---- -----   --------------------       ------------------------
RUN  .          2                        :RUN NUMBER
PDAT .        NM                         :Permanent Datum
EPD  .M           0.000000               :Elevation of Permanent Datum above Mean Sea Level
LMF  .          MR                       :Logging Measured From (Name of Logging Elevation Reference)
APD  .M          78.000000               :Elevation of Depth Reference (LMF) above Permanent Datum
#-----------------------------------------------------------------------------
~CURVE INFORMATION
#MNEM.UNIT   API CODE                                  DESCRIPTION
#---- -----  --------                                  -----------------------
DEPT .M                                                :DEPTH (BOREHOLE) {F10.4}
DT   .US/F                                             :Delta-T {F13.4}
GR   .GAPI                                             :Gamma-Ray {F13.4}
HCAL .IN                                               :HRCC Cal. Caliper {F13.4}
HDRA .G/C3                                             :HRDD Density Correction {F13.4}
HLLD .OHMM                                             :HALS Laterolog Deep Resistivity {F13.4}
HLLS .OHMM                                             :HALS Laterolog Shallow Resistivity {F13.4}
HRM  .OHMM                                             :HALS Mud resistivity {F13.4}
HSO  .IN                                               :HALS Sonde Computed Standoff {F13.4}
HTEM .DEGC                                             :HTC Temperature {F13.4}
ITT  .S                                                :Integrated Transit Time {F13.4}
NPHI .V/V                                              :Thermal Neutron Porosity (Ratio Method) {F13.4}
PEFZ .                                                 :HRDD Standard Resolution Formation Photoelectric Factor {F13.4}
RHOZ .G/C3                                             :HRDD Standard Resolution Formation Density {F13.4}
#-----------------------------------------------------------------------------
# 
#     DEPT        DT           GR           HCAL         HDRA         HLLD         HLLS         HRM          HSO          HTEM         ITT          NPHI         PEFZ         RHOZ
#
~A  
# ...
 1548.0792      74.9285     189.3394       8.5498      -0.0043       3.2719       3.7516       0.0274       1.5249      70.1715       0.0016       0.1814       3.4998       2.5296
 1547.9268      74.7318     183.9171       8.4230      -0.0034       3.4226       3.9410       0.0274       1.4615      70.1715       0.0017       0.1656       3.4050       2.5153
 1547.7744      74.8276     177.7414       8.3423      -0.0034       2.4538       2.7987       0.0274       1.4212      70.1715       0.0017       0.1935       3.3820       2.4900
 1547.6220      76.2715     167.2268       8.3078      -0.0037       1.9728       2.2533       0.0274       1.4039      70.1715       0.0018       0.2103       3.3889       2.4639
 1547.4696      78.2956     153.4019       8.3308      -0.0034       1.4929       1.7198       0.0274       1.4154      70.1715       0.0018       0.2268       3.4048       2.4524
 1547.3172      75.1836     144.6402       8.3654      -0.0015       1.6672       1.9035       0.0274       1.4327      70.1715       0.0018       0.1942       3.3917       2.4700
 1547.1648      71.9176     145.9050       8.3539      -0.0030       2.2874       2.5561       0.0274       1.4269      70.1715       0.0019       0.1636       3.4253       2.4834
 1547.0124      73.3393     149.0650       8.3423      -0.0056       3.0263       3.3363       0.0274       1.4212      70.1715       0.0019       0.1743       3.4502       2.4843
 1546.8600      72.0781     156.5714       8.3654      -0.0084       2.3407       2.6698       0.0274       1.4327      70.1715       0.0019       0.2025       3.5021       2.4581
 1546.7076      75.3143     166.5101       8.4576      -0.0071       2.2532       2.5839       0.0274       1.4788      70.1715       0.0020       0.2261       3.4756       2.4500
 1546.5552      76.9749     175.3806       8.4115      -0.0046       2.5628       2.9077       0.0274       1.4558      70.1715       0.0020       0.2133       3.4373       2.4573
 1546.4028      74.7338     172.9014       8.3423      -0.0018       2.5390       2.8807       0.0274       1.4212      70.1715       0.0021       0.2007       3.3749       2.4808
 1546.2504      74.8856     168.3051       8.3193       0.0025       2.7683       3.1133       0.0274       1.4096      70.1715       0.0021       0.2059       3.3998       2.4982
 1546.0980      74.9433     168.4836       8.2040       0.0060       2.6979       3.0166       0.0274       1.3520      70.1715       0.0021       0.2086       3.4566       2.5043
 1545.9456      74.7944     177.8198       8.3193       0.0058       2.8774       3.2257       0.0274       1.4096      70.1715       0.0022       0.2067       3.5337       2.5002
 1545.7932      76.1093     197.8405       8.2501       0.0029       2.9067       3.2491       0.0274       1.3751      70.1715       0.0022       0.2179       3.5409       2.4983
 1545.6408      76.8998     207.8949       8.2962      -0.0005       3.0920       3.4322       0.0273       1.3981      70.1715       0.0022       0.2213       3.5366       2.4990
 1545.4884      75.8998     207.7513       8.3539      -0.0018       3.2585       3.6027       0.0273       1.4269      70.1715       0.0023       0.2136       3.5280       2.5100
 1545.3360      76.9964     207.4086       8.4115      -0.0030       3.2208       3.5831       0.0273       1.4558      70.1715       0.0023       0.1961       3.5305       2.5247
 1545.1836      75.8256     206.5468       8.3885      -0.0020       3.5430       3.9519       0.0270       1.4442      70.1715       0.0024       0.1899       3.5378       2.5513
 1545.0312      77.4759     215.2672       8.3885      -0.0005       3.2980       3.7086       0.0270       1.4442      70.1715       0.0024       0.2087       3.5942       2.5734
 1544.8788      78.4874     213.1657       8.3885       0.0009       3.3814       3.8590       0.0270       1.4442      70.1715       0.0024       0.2248       3.6890       2.5838
 1544.7264      79.1877     222.2147       8.4115       0.0020       3.1134       3.5549       0.0270       1.4558      70.1715       0.0025       0.2479       3.7803       2.5780
 1544.5740      81.2975     211.0525       8.4269       0.0049       3.3654       3.7886       0.0270       1.4634      70.1715       0.0025       0.2454       3.7697       2.5574
 1544.4216      82.3678     188.9949       8.3885       0.0040       1.8103       2.0388       0.0270       1.4442      70.1715       0.0026       0.2505       3.6603       2.5050
 1544.2692      80.2082     149.0618       8.4230       0.0011       0.9538       1.1026       0.0270       1.4615      70.1715       0.0026       0.2189       3.5326       2.4506
 1544.1168      76.1564     126.2239       8.3885      -0.0004       0.8991       1.0468       0.0270       1.4442      70.1715       0.0026       0.1880       3.4253       2.4354
 1543.9644      74.5108     116.3415       8.3423       0.0001       1.0740       1.2595       0.0270       1.4212      70.1715       0.0027       0.1785       3.3833       2.4518
 1543.8120      72.8379     118.1837       8.3193       0.0009       2.1363       2.5001       0.0270       1.4096      70.1715       0.0027       0.1532       3.3595       2.4619
 1543.6596      66.6224     120.6255       8.3193      -0.0001       2.8467       3.3797       0.0270       1.4096      70.1715       0.0027       0.1368       3.3548       2.4429
 1543.5072      67.4347     120.3232       8.2962       0.0016       4.0164       4.8402       0.0270       1.3981      70.1715       0.0028       0.0944       3.3420       2.4271
 1543.3548      67.2281     122.7927       8.2962       0.0016       3.5767       4.3173       0.0269       1.3981      70.1715       0.0028       0.0952       3.3278       2.4162
 1543.2024      65.6499     125.6877       8.3539      -0.0011       2.0290       2.4621       0.0269       1.4269      70.1715       0.0028       0.0992       3.3229       2.4099
 1543.0500      68.0784     136.9062       8.3423      -0.0053       1.3153       1.5623       0.0269       1.4212      70.1715       0.0029       0.1023       3.3639       2.4083
 1542.8976      72.2680     154.9686       8.3193      -0.0070       1.3227       1.5353       0.0269       1.4096      70.1715       0.0029       0.1421       3.4436       2.4272
 1542.7452      78.3390     178.5024       8.4346      -0.0073       1.5044       1.7339       0.0269       1.4673      70.1715       0.0030       0.1774       3.5574       2.4561
 1542.5928      82.4727     192.5787       8.4576      -0.0065       2.4866       2.8466       0.0269       1.4788      70.1715       0.0030       0.2052       3.6302       2.4902
 1542.4404      81.3338     197.8672       8.4730      -0.0068       2.9356       3.3917       0.0269       1.4865      70.1715       0.0030       0.1854       3.6661       2.5203
 1542.2880      79.9062     208.7834       8.4692      -0.0050       3.5151       4.1328       0.0269       1.4846      70.1715       0.0031       0.1864       3.6565       2.5568
 1542.1356      78.0463     216.9307       8.4922      -0.0043       3.5805       4.3498       0.0269       1.4961      70.1715       0.0031       0.2058       3.6892       2.5807
 1541.9832      78.1135     225.6104       8.5037      -0.0042       3.0987       3.8522       0.0269       1.5019      70.1715       0.0032       0.2275       3.7550       2.5880
 1541.8308      79.4225     222.5999       8.5037      -0.0065       3.0078       3.7678       0.0270       1.5019      70.1715       0.0032       0.2265       3.8505       2.5756
 1541.6784      79.7126     220.4853       8.5422      -0.0069       2.9771       3.7684       0.0270       1.5211      70.1715       0.0032       0.2136       3.8799       2.5695
 1541.5260      80.3243     223.3160       8.5383      -0.0075       3.0606       3.8547       0.0270       1.5192      70.1715       0.0033       0.2246       3.8889       2.5603
 1541.3736      80.0816     221.5864       8.5729      -0.0034       2.7230       3.4634       0.0270       1.5365      70.1715       0.0033       0.2362       3.8496       2.5553
